Checksum, UNIX Time Stamp, Mission ID, Platform Tail Number, Platform Heading Angle, Platform Pitch Angle, Platform Roll Angle, Platform Designation, Image Source Sensor, Image Coordinate System, Sensor Latitude, Sensor Longitude, Sensor True Altitude, Sensor Horizontal Field of View, Sensor Vertical Field of View, Sensor Relative Azimuth Angle, Sensor Relative Elevation Angle, Sensor Relative Roll Angle
,1518815726486000,,,32.2,1.1,0.0,,,,64.855354,-147.858569,130.5,38.471454284514344,68.66448958100517,359.8,12.700000000000001,,
,1518815726601000,,,32.2,1.0,0.0,,,,64.855354,-147.858569,130.6,38.471454284514344,68.66448958100517,359.8,12.8,,
,1518815726717000,,,32.1,0.9,0.0,,,,64.855354,-147.858569,130.6,38.471454284514344,68.66448958100517,359.9,12.9,,
,1518815726814000,,,32.2,0.7,0.0,,,,64.855354,-147.858569,130.6,38.471454284514344,68.66448958100517,359.8,13.100000000000001,,
,1518815726893000,,,32.1,0.7,0.0,,,,64.855354,-147.858569,130.6,38.471454284514344,68.66448958100517,359.9,13.100000000000001,,
,1518815726998000,,,32.1,0.6,0.0,,,,64.855354,-147.858569,130.8,38.471454284514344,68.66448958100517,359.9,13.200000000000001,,
,1518815727100000,,,32.1,0.6,0.0,,,,64.855354,-147.858569,130.8,38.471454284514344,68.66448958100517,359.9,13.200000000000001,,
,1518815727199000,,,32.1,0.6,0.0,,,,64.855354,-147.858568,130.8,38.471454284514344,68.66448958100517,359.9,13.200000000000001,,
,1518815727292000,,,32.1,0.6,0.0,,,,64.855354,-147.858568,130.8,38.471454284514344,68.66448958100517,359.9,13.200000000000001,,
,1518815727393000,,,32.1,0.6,0.0,,,,64.855354,-147.858568,131.0,38.471454284514344,68.66448958100517,359.9,13.200000000000001,,
,1518815727492000,,,32.1,0.5,0.0,,,,64.855354,-147.858568,131.0,38.471454284514344,68.66448958100517,359.9,13.3,,
,1518815727591000,,,32.1,0.6,0.0,,,,64.855354,-147.858568,131.1,38.471454284514344,68.66448958100517,359.9,13.200000000000001,,
,1518815727692000,,,32.1,0.7,0.0,,,,64.855354,-147.858568,131.1,38.471454284514344,68.66448958100517,359.9,13.100000000000001,,
,1518815727793000,,,32.1,0.2,0.0,,,,64.855354,-147.858568,131.2,38.471454284514344,68.66448958100517,359.9,13.600000000000001,,
,1518815727891000,,,32.0,0.2,0.0,,,,64.855354,-147.858568,131.2,38.471454284514344,68.66448958100517,0.0,13.600000000000001,,
,1518815727993000,,,32.0,0.6,0.0,,,,64.855354,-147.858568,131.2,38.471454284514344,68.66448958100517,0.0,13.200000000000001,,
,1518815728099000,,,32.0,0.7,0.0,,,,64.855354,-147.858568,131.2,38.471454284514344,68.66448958100517,0.0,13.100000000000001,,
,1518815728191000,,,32.0,0.6,0.0,,,,64.855353,-147.858568,131.3,38.471454284514344,68.66448958100517,0.0,13.200000000000001,,
,1518815728298000,,,32.0,0.5,0.0,,,,64.855353,-147.858567,131.3,38.471454284514344,68.66448958100517,0.0,13.3,,
,1518815728389000,,,32.1,0.5,0.0,,,,64.855353,-147.858567,131.5,38.471454284514344,68.66448958100517,359.9,13.3,,
,1518815728491000,,,32.1,0.3,0.0,,,,64.855353,-147.858567,131.6,38.471454284514344,68.66448958100517,359.9,13.5,,
,1518815728600000,,,32.1,0.4,0.0,,,,64.855353,-147.858567,131.7,38.471454284514344,68.66448958100517,359.9,13.4,,
,1518815728698000,,,32.1,0.3,0.0,,,,64.855353,-147.858567,131.8,38.471454284514344,68.66448958100517,359.9,13.5,,
,1518815728797000,,,32.0,0.3,0.0,,,,64.855353,-147.858566,132.0,38.471454284514344,68.66448958100517,0.0,13.5,,
,1518815728899000,,,31.9,0.0,0.0,,,,64.855353,-147.858566,132.2,38.471454284514344,68.66448958100517,0.10000000000000142,13.8,,
,1518815728987000,,,31.9,0.0,0.0,,,,64.855353,-147.858566,132.5,38.471454284514344,68.66448958100517,0.10000000000000142,13.8,,
,1518815729096000,,,31.9,0.1,0.0,,,,64.855353,-147.858566,132.7,38.471454284514344,68.66448958100517,0.10000000000000142,13.700000000000001,,
,1518815729196000,,,31.9,0.0,0.0,,,,64.855353,-147.858566,133.0,38.471454284514344,68.66448958100517,0.10000000000000142,13.8,,
,1518815729302000,,,31.8,0.0,0.0,,,,64.855353,-147.858566,133.2,38.471454284514344,68.66448958100517,0.1999999999999993,13.8,,
,1518815729397000,,,31.8,0.2,0.0,,,,64.855353,-147.858566,133.5,38.471454284514344,68.66448958100517,0.1999999999999993,13.600000000000001,,
,1518815729484000,,,31.9,0.2,0.0,,,,64.855353,-147.858567,133.9,38.471454284514344,68.66448958100517,0.10000000000000142,13.600000000000001,,
,1518815729597000,,,32.0,0.2,0.0,,,,64.855353,-147.858567,134.3,38.471454284514344,68.66448958100517,0.0,13.600000000000001,,
,1518815729696000,,,32.0,0.3,0.0,,,,64.855353,-147.858567,134.5,38.471454284514344,68.66448958100517,0.0,13.5,,
,1518815729801000,,,32.0,0.2,0.0,,,,64.855353,-147.858567,134.9,38.471454284514344,68.66448958100517,0.0,13.600000000000001,,
,1518815729903000,,,32.0,0.3,0.0,,,,64.855353,-147.858567,135.3,38.471454284514344,68.66448958100517,0.0,13.5,,
,1518815730000000,,,32.0,0.2,0.0,,,,64.855353,-147.858567,135.5,38.471454284514344,68.66448958100517,0.0,13.600000000000001,,
,1518815730101000,,,32.0,0.3,0.0,,,,64.855353,-147.858567,135.9,38.471454284514344,68.66448958100517,0.0,13.5,,
,1518815730197000,,,32.0,0.3,0.0,,,,64.855353,-147.858567,136.1,38.471454284514344,68.66448958100517,0.0,13.5,,
,1518815730287000,,,32.0,0.4,0.0,,,,64.855353,-147.858568,136.5,38.471454284514344,68.66448958100517,0.0,13.4,,
,1518815730390000,,,32.0,0.4,0.0,,,,64.855353,-147.858568,136.8,38.471454284514344,68.66448958100517,0.0,13.4,,
,1518815730493000,,,32.0,0.4,0.0,,,,64.855353,-147.858568,137.0,38.471454284514344,68.66448958100517,0.0,13.4,,
,1518815730596000,,,32.0,0.4,0.0,,,,64.855353,-147.858568,137.4,38.471454284514344,68.66448958100517,0.0,13.4,,
,1518815730699000,,,32.0,0.3,0.0,,,,64.855353,-147.858568,137.5,38.471454284514344,68.66448958100517,0.0,13.5,,
,1518815730802000,,,32.0,0.4,0.0,,,,64.855353,-147.858568,137.8,38.471454284514344,68.66448958100517,0.0,13.4,,
,1518815730901000,,,32.0,0.7,0.0,,,,64.855353,-147.858568,138.0,38.471454284514344,68.66448958100517,0.0,13.100000000000001,,
,1518815731011000,,,32.0,0.9,0.0,,,,64.855353,-147.858568,138.3,38.471454284514344,68.66448958100517,0.0,12.9,,
,1518815731101000,,,32.0,1.0,0.0,,,,64.855353,-147.858568,138.6,38.471454284514344,68.66448958100517,0.0,12.8,,
,1518815731191000,,,32.0,1.0,0.0,,,,64.855353,-147.858568,138.8,38.471454284514344,68.66448958100517,0.0,12.8,,
,1518815731291000,,,31.9,1.0,0.0,,,,64.855353,-147.858568,139.1,38.471454284514344,68.66448958100517,0.10000000000000142,12.8,,
,1518815731401000,,,31.9,1.1,0.0,,,,64.855353,-147.858568,139.5,38.471454284514344,68.66448958100517,0.10000000000000142,12.700000000000001,,
,1518815731495000,,,31.9,1.3,0.0,,,,64.855353,-147.858568,139.8,38.471454284514344,68.66448958100517,0.10000000000000142,12.5,,
,1518815731598000,,,31.9,1.4,0.0,,,,64.855353,-147.858568,140.1,38.471454284514344,68.66448958100517,0.10000000000000142,12.4,,
,1518815731707000,,,32.0,1.5,0.0,,,,64.855352,-147.858568,140.3,38.471454284514344,68.66448958100517,0.0,12.3,,
,1518815731786000,,,32.1,1.7,0.0,,,,64.855352,-147.858568,140.6,38.471454284514344,68.66448958100517,359.9,12.100000000000001,,
,1518815731890000,,,32.1,1.8,0.0,,,,64.855352,-147.858568,141.0,38.471454284514344,68.66448958100517,359.9,12.0,,
,1518815731993000,,,32.1,1.7,0.0,,,,64.855352,-147.858569,141.3,38.471454284514344,68.66448958100517,359.9,12.100000000000001,,
,1518815732114000,,,32.1,1.6,0.0,,,,64.855352,-147.858569,141.6,38.471454284514344,68.66448958100517,359.9,12.200000000000001,,
,1518815732210000,,,32.0,1.3,0.0,,,,64.855352,-147.858569,141.8,38.471454284514344,68.66448958100517,0.0,12.5,,
,1518815732286000,,,32.0,1.2,0.0,,,,64.855352,-147.858569,142.1,38.471454284514344,68.66448958100517,0.0,12.600000000000001,,
,1518815732397000,,,32.0,1.2,0.0,,,,64.855352,-147.858569,142.5,38.471454284514344,68.66448958100517,0.0,12.600000000000001,,
,1518815732500000,,,32.0,1.2,0.0,,,,64.855352,-147.858569,142.8,38.471454284514344,68.66448958100517,0.0,12.600000000000001,,
,1518815732599000,,,32.0,1.3,0.0,,,,64.855352,-147.858569,143.1,38.471454284514344,68.66448958100517,0.0,12.5,,
,1518815732694000,,,32.0,1.3,0.0,,,,64.855352,-147.858569,143.5,38.471454284514344,68.66448958100517,0.0,12.5,,
,1518815732803000,,,32.1,1.3,0.0,,,,64.855352,-147.858569,143.8,38.471454284514344,68.66448958100517,359.9,12.5,,
,1518815732901000,,,32.0,1.2,0.0,,,,64.855352,-147.858569,144.1,38.471454284514344,68.66448958100517,0.0,12.600000000000001,,
,1518815732989000,,,32.0,1.0,0.0,,,,64.855352,-147.858569,144.3,38.471454284514344,68.66448958100517,0.0,12.8,,
,1518815733123000,,,32.0,0.9,0.0,,,,64.855352,-147.858569,144.6,38.471454284514344,68.66448958100517,0.0,12.9,,
,1518815733198000,,,32.0,0.7,0.0,,,,64.855352,-147.858569,145.0,38.471454284514344,68.66448958100517,0.0,13.100000000000001,,
,1518815733297000,,,32.0,0.8,0.0,,,,64.855352,-147.858569,145.3,38.471454284514344,68.66448958100517,0.0,13.0,,
,1518815733390000,,,32.1,0.8,0.0,,,,64.855352,-147.858569,145.6,38.471454284514344,68.66448958100517,359.9,13.0,,
,1518815733495000,,,32.1,0.6,0.0,,,,64.855352,-147.858569,145.8,38.471454284514344,68.66448958100517,359.9,13.200000000000001,,
,1518815733599000,,,32.0,0.4,0.0,,,,64.855352,-147.858569,146.2,38.471454284514344,68.66448958100517,0.0,13.4,,
,1518815733698000,,,32.0,0.5,0.0,,,,64.855352,-147.858568,146.5,38.471454284514344,68.66448958100517,0.0,13.3,,
,1518815733796000,,,32.1,0.7,0.0,,,,64.855352,-147.858568,146.7,38.471454284514344,68.66448958100517,359.9,13.100000000000001,,
,1518815733899000,,,32.0,0.8,0.0,,,,64.855353,-147.858568,147.1,38.471454284514344,68.66448958100517,0.0,13.0,,
,1518815734022000,,,32.0,0.7,0.0,,,,64.855353,-147.858568,147.3,38.471454284514344,68.66448958100517,0.0,13.100000000000001,,
,1518815734105000,,,32.0,0.6,0.0,,,,64.855353,-147.858568,147.7,38.471454284514344,68.66448958100517,0.0,13.200000000000001,,
,1518815734203000,,,32.1,0.7,0.0,,,,64.855353,-147.858568,148.1,38.471454284514344,68.66448958100517,359.9,13.100000000000001,,
,1518815734292000,,,32.1,0.6,0.0,,,,64.855353,-147.858568,148.3,38.471454284514344,68.66448958100517,359.9,13.200000000000001,,
,1518815734403000,,,32.1,0.6,0.0,,,,64.855353,-147.858568,148.7,38.471454284514344,68.66448958100517,359.9,13.200000000000001,,
,1518815734500000,,,32.1,0.5,0.0,,,,64.855353,-147.858568,149.2,38.471454284514344,68.66448958100517,359.9,13.3,,
,1518815734598000,,,32.1,0.4,0.0,,,,64.855353,-147.858568,149.7,38.471454284514344,68.66448958100517,359.9,13.4,,
,1518815734702000,,,32.1,0.4,0.0,,,,64.855353,-147.858568,150.1,38.471454284514344,68.66448958100517,359.9,13.4,,
,1518815734788000,,,32.1,0.4,0.0,,,,64.855353,-147.858568,150.5,38.471454284514344,68.66448958100517,359.9,13.4,,
,1518815734898000,,,32.1,0.5,0.0,,,,64.855353,-147.858568,151.0,38.471454284514344,68.66448958100517,359.9,13.3,,
,1518815735000000,,,32.0,0.6,0.0,,,,64.855353,-147.858568,151.3,38.471454284514344,68.66448958100517,0.0,13.200000000000001,,
,1518815735099000,,,32.1,0.8,0.0,,,,64.855353,-147.858568,151.7,38.471454284514344,68.66448958100517,359.9,13.0,,
,1518815735198000,,,32.1,0.9,0.0,,,,64.855353,-147.858568,152.2,38.471454284514344,68.66448958100517,359.9,12.9,,
,1518815735292000,,,32.2,0.9,0.0,,,,64.855353,-147.858568,152.5,38.471454284514344,68.66448958100517,359.8,12.9,,
,1518815735403000,,,32.2,1.0,0.0,,,,64.855353,-147.858568,152.8,38.471454284514344,68.66448958100517,359.8,12.8,,
,1518815735491000,,,32.2,1.0,0.0,,,,64.855353,-147.858568,153.2,38.471454284514344,68.66448958100517,359.8,12.8,,
,1518815735595000,,,32.2,1.0,0.0,,,,64.855353,-147.858569,153.5,38.471454284514344,68.66448958100517,359.8,12.8,,
,1518815735690000,,,32.1,1.0,0.0,,,,64.855353,-147.858569,153.7,38.471454284514344,68.66448958100517,359.9,12.8,,
,1518815735791000,,,32.1,1.1,0.0,,,,64.855353,-147.858569,154.2,38.471454284514344,68.66448958100517,359.9,12.700000000000001,,
,1518815735902000,,,32.1,1.1,0.0,,,,64.855353,-147.858569,154.5,38.471454284514344,68.66448958100517,359.9,12.700000000000001,,
,1518815735999000,,,32.1,1.1,0.0,,,,64.855353,-147.858569,154.7,38.471454284514344,68.66448958100517,359.9,12.700000000000001,,
,1518815736100000,,,32.1,1.2,0.0,,,,64.855353,-147.858569,155.1,38.471454284514344,68.66448958100517,359.9,12.600000000000001,,
,1518815736198000,,,32.2,1.2,0.0,,,,64.855353,-147.858569,155.3,38.471454284514344,68.66448958100517,359.8,12.600000000000001,,
,1518815736295000,,,32.2,1.4,0.0,,,,64.855353,-147.858569,155.6,38.471454284514344,68.66448958100517,359.8,12.4,,
,1518815736402000,,,32.2,1.5,0.0,,,,64.855353,-147.858569,155.8,38.471454284514344,68.66448958100517,359.8,12.3,,
,1518815736500000,,,32.2,1.6,0.0,,,,64.855353,-147.858569,156.2,38.471454284514344,68.66448958100517,359.8,12.200000000000001,,
,1518815736603000,,,32.2,1.5,0.0,,,,64.855353,-147.858569,156.5,38.471454284514344,68.66448958100517,359.8,12.3,,
,1518815736691000,,,32.2,1.5,0.0,,,,64.855353,-147.858569,156.7,38.471454284514344,68.66448958100517,359.8,12.3,,
,1518815736791000,,,32.1,1.6,0.0,,,,64.855353,-147.858569,157.1,38.471454284514344,68.66448958100517,359.9,12.200000000000001,,
,1518815736899000,,,32.1,1.8,0.0,,,,64.855353,-147.858569,157.3,38.471454284514344,68.66448958100517,359.9,12.0,,
,1518815736995000,,,32.1,1.9,0.0,,,,64.855352,-147.858569,157.7,38.471454284514344,68.66448958100517,359.9,11.9,,
,1518815737092000,,,32.1,2.1,0.0,,,,64.855352,-147.858569,158.0,38.471454284514344,68.66448958100517,359.9,11.700000000000001,,
,1518815737194000,,,32.1,2.2,0.0,,,,64.855352,-147.858569,158.2,38.471454284514344,68.66448958100517,359.9,11.600000000000001,,
,1518815737300000,,,32.2,2.2,0.0,,,,64.855352,-147.858569,158.5,38.471454284514344,68.66448958100517,359.8,11.600000000000001,,
,1518815737395000,,,32.2,2.4,0.0,,,,64.855352,-147.858569,158.7,38.471454284514344,68.66448958100517,359.8,11.4,,
,1518815737499000,,,32.2,2.2,0.0,,,,64.855352,-147.858569,159.1,38.471454284514344,68.66448958100517,359.8,11.600000000000001,,
,1518815737600000,,,32.2,2.2,0.0,,,,64.855352,-147.858569,159.3,38.471454284514344,68.66448958100517,359.8,11.600000000000001,,
,1518815737690000,,,32.2,2.3,0.0,,,,64.855352,-147.858569,159.7,38.471454284514344,68.66448958100517,359.8,11.5,,
,1518815737800000,,,32.2,2.2,0.0,,,,64.855352,-147.858569,160.0,38.471454284514344,68.66448958100517,359.8,11.600000000000001,,
,1518815737890000,,,32.2,2.2,0.0,,,,64.855352,-147.858569,160.2,38.471454284514344,68.66448958100517,359.8,11.600000000000001,,
,1518815737997000,,,32.2,2.3,0.0,,,,64.855352,-147.858569,160.6,38.471454284514344,68.66448958100517,359.8,11.5,,
,1518815738089000,,,32.3,2.4,0.0,,,,64.855352,-147.858569,160.8,38.471454284514344,68.66448958100517,359.7,11.4,,
,1518815738197000,,,32.3,2.5,0.0,,,,64.855352,-147.858569,161.2,38.471454284514344,68.66448958100517,359.7,11.3,,
,1518815738291000,,,32.3,2.4,0.0,,,,64.855352,-147.858569,161.5,38.471454284514344,68.66448958100517,359.7,11.4,,
,1518815738390000,,,32.2,2.2,0.0,,,,64.855352,-147.858569,161.7,38.471454284514344,68.66448958100517,359.8,11.600000000000001,,
,1518815738490000,,,32.2,2.4,0.0,,,,64.855352,-147.858569,162.0,38.471454284514344,68.66448958100517,359.8,11.4,,
,1518815738592000,,,32.2,2.9,0.0,,,,64.855352,-147.858569,162.4,38.471454284514344,68.66448958100517,359.8,10.9,,
,1518815738700000,,,32.3,3.3,0.0,,,,64.855351,-147.858569,162.7,38.471454284514344,68.66448958100517,359.7,10.5,,
,1518815738797000,,,32.2,3.5,0.0,,,,64.855351,-147.858569,163.0,38.471454284514344,68.66448958100517,359.8,10.3,,
,1518815738902000,,,32.2,3.5,0.0,,,,64.855351,-147.858569,163.2,38.471454284514344,68.66448958100517,359.8,10.3,,
,1518815739105000,,,32.3,3.4,0.0,,,,64.855351,-147.858569,163.9,38.471454284514344,68.66448958100517,359.7,10.4,,
,1518815739206000,,,32.2,3.3,0.0,,,,64.855351,-147.858569,164.2,38.471454284514344,68.66448958100517,359.8,10.5,,
,1518815739298000,,,32.3,3.1,0.0,,,,64.855351,-147.85857,164.5,38.471454284514344,68.66448958100517,359.7,10.700000000000001,,
,1518815739393000,,,32.2,2.9,0.0,,,,64.855351,-147.85857,164.7,38.471454284514344,68.66448958100517,359.8,10.9,,
,1518815739501000,,,32.2,2.9,0.0,,,,64.855351,-147.85857,165.0,38.471454284514344,68.66448958100517,359.8,10.9,,
,1518815739601000,,,32.2,3.0,0.0,,,,64.855351,-147.85857,165.4,38.471454284514344,68.66448958100517,359.8,10.8,,
,1518815739736000,,,32.2,2.9,0.0,,,,64.855351,-147.85857,165.7,38.471454284514344,68.66448958100517,359.8,10.9,,
,1518815739815000,,,32.2,2.7,0.0,,,,64.855352,-147.85857,166.0,38.471454284514344,68.66448958100517,359.8,11.100000000000001,,
,1518815739893000,,,32.2,3.0,0.0,,,,64.855352,-147.85857,166.2,38.471454284514344,68.66448958100517,359.8,10.8,,
,1518815740001000,,,32.2,3.1,0.0,,,,64.855352,-147.85857,166.5,38.471454284514344,68.66448958100517,359.8,10.700000000000001,,
,1518815740098000,,,32.2,3.0,0.0,,,,64.855352,-147.85857,166.9,38.471454284514344,68.66448958100517,359.8,10.8,,
,1518815740209000,,,32.2,3.0,0.0,,,,64.855352,-147.85857,167.2,38.471454284514344,68.66448958100517,359.8,10.8,,
,1518815740295000,,,32.2,3.0,0.0,,,,64.855352,-147.85857,167.5,38.471454284514344,68.66448958100517,359.8,10.8,,
,1518815740424000,,,32.2,3.0,0.0,,,,64.855352,-147.85857,167.7,38.471454284514344,68.66448958100517,359.8,10.8,,
,1518815740514000,,,32.2,3.0,0.0,,,,64.855352,-147.85857,168.0,38.471454284514344,68.66448958100517,359.8,10.8,,
,1518815740601000,,,32.2,3.2,0.0,,,,64.855352,-147.85857,168.4,38.471454284514344,68.66448958100517,359.8,10.600000000000001,,
,1518815740705000,,,32.2,3.2,0.0,,,,64.855352,-147.85857,168.7,38.471454284514344,68.66448958100517,359.8,10.600000000000001,,
,1518815740801000,,,32.2,3.1,0.0,,,,64.855352,-147.85857,169.0,38.471454284514344,68.66448958100517,359.8,10.700000000000001,,
,1518815740894000,,,32.2,3.1,0.0,,,,64.855352,-147.85857,169.2,38.471454284514344,68.66448958100517,359.8,10.700000000000001,,
,1518815741019000,,,32.2,3.2,0.0,,,,64.855352,-147.85857,169.5,38.471454284514344,68.66448958100517,359.8,10.600000000000001,,
,1518815741174000,,,32.2,3.1,0.0,,,,64.855352,-147.85857,169.9,38.471454284514344,68.66448958100517,359.8,10.700000000000001,,
,1518815741205000,,,32.2,3.1,0.0,,,,64.855352,-147.85857,170.2,38.471454284514344,68.66448958100517,359.8,10.5,,
,1518815741290000,,,32.2,3.2,0.0,,,,64.855352,-147.85857,170.5,38.471454284514344,68.66448958100517,359.8,10.100000000000001,,
,1518815741396000,,,32.2,3.3,0.0,,,,64.855352,-147.85857,170.7,38.471454284514344,68.66448958100517,359.8,7.8,,
,1518815741493000,,,32.2,3.3,0.0,,,,64.855352,-147.85857,171.0,38.471454284514344,68.66448958100517,359.8,5.000000000000001,,
,1518815741594000,,,32.2,3.4,0.0,,,,64.855352,-147.85857,171.4,38.471454284514344,68.66448958100517,359.8,1.6,,
,1518815741728000,,,32.2,3.3,0.0,,,,64.855352,-147.85857,171.7,38.471454284514344,68.66448958100517,359.8,-1.5999999999999999,,
,1518815741791000,,,32.2,3.2,0.0,,,,64.855352,-147.858571,172.0,38.471454284514344,68.66448958100517,359.8,-4.800000000000001,,
,1518815741905000,,,32.2,3.2,0.0,,,,64.855352,-147.858571,172.2,38.471454284514344,68.66448958100517,359.8,-8.2,,
,1518815741995000,,,32.2,3.2,0.0,,,,64.855352,-147.858571,172.5,38.471454284514344,68.66448958100517,359.8,-11.5,,
,1518815742142000,,,32.2,3.3,0.0,,,,64.855352,-147.858571,172.9,38.471454284514344,68.66448958100517,359.8,-14.899999999999999,,
,1518815742217000,,,32.2,3.3,0.0,,,,64.855352,-147.858571,173.2,38.471454284514344,68.66448958100517,359.8,-18.4,,
,1518815742316000,,,32.2,3.2,0.0,,,,64.855352,-147.858571,173.5,38.471454284514344,68.66448958100517,359.8,-21.9,,
,1518815742392000,,,32.2,3.1,0.0,,,,64.855352,-147.858571,173.7,38.471454284514344,68.66448958100517,359.8,-25.3,,
,1518815742627000,,,32.2,3.1,0.0,,,,64.855353,-147.858571,174.0,38.471454284514344,68.66448958100517,359.8,-29.1,,
,1518815742655000,,,32.2,3.1,0.0,,,,64.855353,-147.858571,174.4,38.471454284514344,68.66448958100517,359.8,-32.9,,
,1518815742797000,,,32.2,3.1,0.0,,,,64.855353,-147.858571,175.0,38.471454284514344,68.66448958100517,359.8,-41.0,,
,1518815742897000,,,32.2,3.3,0.0,,,,64.855353,-147.858571,175.4,38.471454284514344,68.66448958100517,359.8,-45.199999999999996,,
,1518815743034000,,,32.2,3.4,0.0,,,,64.855353,-147.858571,175.7,38.471454284514344,68.66448958100517,359.8,-49.3,,
,1518815743169000,,,32.2,3.3,0.0,,,,64.855353,-147.858571,176.0,38.471454284514344,68.66448958100517,359.8,-53.3,,
,1518815743250000,,,32.2,3.2,0.0,,,,64.855353,-147.858571,176.2,38.471454284514344,68.66448958100517,359.8,-57.2,,
,1518815743312000,,,32.2,3.2,0.0,,,,64.855353,-147.858571,176.5,38.471454284514344,68.66448958100517,359.8,-61.400000000000006,,
,1518815743399000,,,32.2,3.1,0.0,,,,64.855353,-147.858571,176.9,38.471454284514344,68.66448958100517,359.8,-65.3,,
,1518815743497000,,,32.2,3.2,0.0,,,,64.855353,-147.858571,177.2,38.471454284514344,68.66448958100517,359.8,-69.2,,
,1518815743598000,,,32.2,3.3,0.0,,,,64.855353,-147.858571,177.5,38.471454284514344,68.66448958100517,359.8,-71.2,,
,1518815743701000,,,32.2,3.3,0.0,,,,64.855353,-147.858571,177.7,38.471454284514344,68.66448958100517,359.8,-72.2,,
,1518815743800000,,,32.2,3.5,0.0,,,,64.855353,-147.858571,178.0,38.471454284514344,68.66448958100517,359.8,-72.4,,
,1518815743894000,,,32.2,3.5,0.0,,,,64.855353,-147.858571,178.4,38.471454284514344,68.66448958100517,359.8,-72.4,,
,1518815743997000,,,32.2,3.5,0.0,,,,64.855353,-147.858571,178.7,38.471454284514344,68.66448958100517,359.8,-72.4,,
,1518815744099000,,,32.2,3.6,0.0,,,,64.855353,-147.858571,179.0,38.471454284514344,68.66448958100517,359.8,-72.5,,
,1518815744208000,,,32.2,3.6,0.0,,,,64.855353,-147.858571,179.2,38.471454284514344,68.66448958100517,359.8,-72.5,,
,1518815744307000,,,32.1,3.6,0.0,,,,64.855353,-147.858571,179.5,38.471454284514344,68.66448958100517,359.9,-72.5,,
,1518815744392000,,,32.1,3.5,0.0,,,,64.855353,-147.858571,179.9,38.471454284514344,68.66448958100517,359.9,-72.4,,
,1518815744606000,,,32.1,3.5,0.0,,,,64.855353,-147.858571,180.2,38.471454284514344,68.66448958100517,359.9,-73.0,,
,1518815744648000,,,32.2,3.5,0.0,,,,64.855353,-147.858571,180.5,38.471454284514344,68.66448958100517,359.8,-77.3,,
,1518815744749000,,,32.2,3.5,0.0,,,,64.855353,-147.858571,180.7,38.471454284514344,68.66448958100517,359.8,-82.9,,
,1518815744797000,,,32.2,3.5,0.0,,,,64.855353,-147.858571,181.0,38.471454284514344,68.66448958100517,359.8,-88.5,,
,1518815744904000,,,32.3,3.5,0.0,,,,64.855353,-147.858571,181.4,38.471454284514344,68.66448958100517,359.7,-88.5,,
,1518815745002000,,,32.3,3.6,0.0,,,,64.855353,-147.858571,181.7,38.471454284514344,68.66448958100517,359.7,-92.89999999999999,,
,1518815745096000,,,32.2,3.5,0.0,,,,64.855353,-147.858571,182.0,38.471454284514344,68.66448958100517,359.8,-93.5,,
,1518815745183000,,,32.2,3.5,0.0,,,,64.855353,-147.858571,182.2,38.471454284514344,68.66448958100517,359.8,-93.5,,
,1518815745298000,,,32.2,3.4,0.0,,,,64.855353,-147.858571,182.5,38.471454284514344,68.66448958100517,359.8,-93.4,,
,1518815745393000,,,32.2,3.4,0.0,,,,64.855353,-147.858571,182.9,38.471454284514344,68.66448958100517,359.8,-93.30000000000001,,
,1518815745492000,,,32.2,3.4,0.0,,,,64.855353,-147.858571,183.2,38.471454284514344,68.66448958100517,359.8,-93.4,,
,1518815745590000,,,32.1,3.4,0.0,,,,64.855353,-147.858571,183.5,38.471454284514344,68.66448958100517,359.9,-93.4,,
,1518815745693000,,,32.1,3.4,0.0,,,,64.855353,-147.858571,183.7,38.471454284514344,68.66448958100517,359.9,-93.30000000000001,,
,1518815745798000,,,32.1,3.6,0.0,,,,64.855353,-147.858571,184.0,38.471454284514344,68.66448958100517,359.9,-93.5,,
,1518815745893000,,,32.2,3.7,0.0,,,,64.855353,-147.858571,184.4,38.471454284514344,68.66448958100517,359.8,-93.7,,
,1518815746025000,,,32.2,3.7,0.0,,,,64.855353,-147.858571,184.7,38.471454284514344,68.66448958100517,359.8,-92.7,,
,1518815746149000,,,32.2,3.7,0.0,,,,64.855353,-147.858571,185.0,38.471454284514344,68.66448958100517,359.8,-89.2,,
,1518815746226000,,,32.2,3.7,0.0,,,,64.855353,-147.858571,185.2,38.471454284514344,68.66448958100517,359.8,-84.8,,
,1518815746317000,,,32.3,3.7,0.0,,,,64.855353,-147.858571,185.5,38.471454284514344,68.66448958100517,359.7,-79.8,,
,1518815746395000,,,32.3,3.7,0.0,,,,64.855353,-147.858571,185.9,38.471454284514344,68.66448958100517,359.7,-75.8,,
,1518815746621000,,,32.2,3.7,0.0,,,,64.855353,-147.858571,186.2,38.471454284514344,68.66448958100517,359.8,-74.2,,
,1518815746667000,,,32.2,3.8,0.0,,,,64.855353,-147.858571,186.5,38.471454284514344,68.66448958100517,359.8,-73.3,,
,1518815746778000,,,32.2,3.9,0.0,,,,64.855353,-147.858571,186.7,38.471454284514344,68.66448958100517,359.8,-73.4,,
,1518815746846000,,,32.2,3.8,0.0,,,,64.855353,-147.858571,187.0,38.471454284514344,68.66448958100517,359.8,-73.3,,
,1518815746898000,,,32.2,3.7,0.0,,,,64.855353,-147.858571,187.4,38.471454284514344,68.66448958100517,359.8,-73.2,,
,1518815747004000,,,32.2,3.9,0.0,,,,64.855353,-147.858571,187.7,38.471454284514344,68.66448958100517,359.8,-73.4,,
,1518815747111000,,,32.2,4.0,0.0,,,,64.855353,-147.858571,187.9,38.471454284514344,68.66448958100517,359.8,-73.5,,
,1518815747191000,,,32.3,4.1,0.0,,,,64.855353,-147.858571,188.2,38.471454284514344,68.66448958100517,359.7,-73.6,,
,1518815747290000,,,32.3,4.1,0.0,,,,64.855353,-147.858571,188.5,38.471454284514344,68.66448958100517,359.7,-73.6,,
,1518815747402000,,,32.2,4.1,0.0,,,,64.855353,-147.858571,188.7,38.471454284514344,68.66448958100517,359.8,-73.6,,
,1518815747506000,,,32.2,4.1,0.0,,,,64.855353,-147.858571,188.9,38.471454284514344,68.66448958100517,359.8,-73.6,,
,1518815747597000,,,32.2,4.0,0.0,,,,64.855353,-147.858571,189.0,38.471454284514344,68.66448958100517,359.8,-73.5,,
,1518815747697000,,,32.2,4.0,0.0,,,,64.855353,-147.858571,189.2,38.471454284514344,68.66448958100517,359.8,-73.5,,
,1518815747799000,,,32.2,3.8,0.0,,,,64.855353,-147.858571,189.4,38.471454284514344,68.66448958100517,359.8,-73.3,,
,1518815747904000,,,32.2,3.7,0.0,,,,64.855353,-147.858571,189.5,38.471454284514344,68.66448958100517,359.8,-73.2,,
,1518815748016000,,,32.2,3.7,0.0,,,,64.855353,-147.85857,189.7,38.471454284514344,68.66448958100517,359.8,-73.2,,
,1518815748091000,,,32.2,3.8,0.0,,,,64.855353,-147.85857,189.7,38.471454284514344,68.66448958100517,359.8,-73.3,,
,1518815748206000,,,32.2,3.8,0.0,,,,64.855353,-147.85857,189.9,38.471454284514344,68.66448958100517,359.8,-73.3,,
,1518815748291000,,,32.3,3.9,0.0,,,,64.855353,-147.85857,190.0,38.471454284514344,68.66448958100517,359.7,-73.4,,
,1518815748397000,,,32.3,3.9,0.0,,,,64.855353,-147.85857,190.2,38.471454284514344,68.66448958100517,359.7,-73.4,,
,1518815748554000,,,32.2,3.9,0.0,,,,64.855353,-147.85857,190.4,38.471454284514344,68.66448958100517,359.8,-73.4,,
,1518815748624000,,,32.2,3.9,0.0,,,,64.855353,-147.85857,190.5,38.471454284514344,68.66448958100517,359.8,-73.4,,
,1518815748713000,,,32.3,3.8,0.0,,,,64.855353,-147.858569,190.5,38.471454284514344,68.66448958100517,359.7,-73.3,,
,1518815748826000,,,32.2,3.7,0.0,,,,64.855353,-147.858569,190.7,38.471454284514344,68.66448958100517,359.8,-73.2,,
,1518815748899000,,,32.3,3.7,0.0,,,,64.855353,-147.858569,190.7,38.471454284514344,68.66448958100517,359.7,-73.2,,
,1518815749023000,,,33.2,3.4,0.0,,,,64.855353,-147.858569,190.9,38.471454284514344,68.66448958100517,358.8,-72.9,,
,1518815749176000,,,41.4,2.3,0.0,,,,64.855353,-147.858569,191.0,38.471454284514344,68.66448958100517,350.8,-71.8,,
,1518815749251000,,,50.0,1.5,0.0,,,,64.855353,-147.858569,191.0,38.471454284514344,68.66448958100517,344.4,-71.0,,
,1518815749354000,,,58.6,1.3,0.0,,,,64.855353,-147.858569,191.0,38.471454284514344,68.66448958100517,340.9,-70.8,,
,1518815749391000,,,67.2,1.3,0.0,,,,64.855353,-147.858569,191.2,38.471454284514344,68.66448958100517,332.3,-70.8,,
,1518815749662000,,,75.2,1.0,0.0,,,,64.855352,-147.858569,191.2,38.471454284514344,68.66448958100517,331.3,-70.5,,
,1518815749695000,,,81.3,0.1,0.0,,,,64.855352,-147.858569,191.2,38.471454284514344,68.66448958100517,333.2,-69.69999999999999,,
,1518815749772000,,,85.9,-0.5,0.0,,,,64.855352,-147.858568,191.2,38.471454284514344,68.66448958100517,336.6,-69.0,,
,1518815749849000,,,89.2,-1.3,0.0,,,,64.855352,-147.858568,191.2,38.471454284514344,68.66448958100517,339.9,-68.2,,
,1518815749924000,,,91.5,-2.1,0.0,,,,64.855352,-147.858568,191.4,38.471454284514344,68.66448958100517,343.0,-67.4,,
,1518815750029000,,,92.9,-2.7,0.0,,,,64.855352,-147.858568,191.4,38.471454284514344,68.66448958100517,346.0,-66.8,,
,1518815750105000,,,93.5,-1.1,0.0,,,,64.855352,-147.858567,191.4,38.471454284514344,68.66448958100517,348.6,-68.4,,
,1518815750198000,,,93.9,1.3,0.0,,,,64.855352,-147.858567,191.5,38.471454284514344,68.66448958100517,350.6,-70.8,,
,1518815750392000,,,94.3,5.6,0.0,,,,64.855352,-147.858566,191.5,38.471454284514344,68.66448958100517,353.2,-75.1,,
,1518815750551000,,,94.3,7.5,0.0,,,,64.855351,-147.858565,191.5,38.471454284514344,68.66448958100517,354.1,-77.0,,
,1518815750601000,,,94.3,9.2,0.0,,,,64.855351,-147.858564,191.5,38.471454284514344,68.66448958100517,354.7,-78.7,,
,1518815750695000,,,94.2,10.4,0.0,,,,64.855351,-147.858562,191.7,38.471454284514344,68.66448958100517,355.3,-79.9,,
,1518815750795000,,,94.3,11.4,0.0,,,,64.855351,-147.85856,191.7,38.471454284514344,68.66448958100517,355.6,-80.9,,
,1518815750893000,,,94.3,12.2,0.0,,,,64.855351,-147.858558,191.7,38.471454284514344,68.66448958100517,355.8,-81.7,,
,1518815750994000,,,94.3,12.9,0.0,,,,64.855351,-147.858555,191.7,38.471454284514344,68.66448958100517,356.2,-82.4,,
,1518815751115000,,,94.3,13.4,0.0,,,,64.85535,-147.858552,191.7,38.471454284514344,68.66448958100517,356.3,-82.9,,
,1518815751208000,,,94.3,13.7,0.0,,,,64.85535,-147.858548,191.7,38.471454284514344,68.66448958100517,356.5,-83.2,,
,1518815751299000,,,94.2,13.8,0.0,,,,64.85535,-147.858544,191.7,38.471454284514344,68.66448958100517,356.8,-83.3,,
,1518815751394000,,,94.1,13.9,0.0,,,,64.85535,-147.858539,191.9,38.471454284514344,68.66448958100517,356.9,-83.4,,
,1518815751499000,,,94.1,13.9,0.0,,,,64.855349,-147.858534,191.9,38.471454284514344,68.66448958100517,357.0,-83.4,,
,1518815751601000,,,94.0,14.0,0.0,,,,64.855349,-147.858528,191.9,38.471454284514344,68.66448958100517,357.3,-83.5,,
,1518815751702000,,,94.0,14.1,0.0,,,,64.855349,-147.858522,191.9,38.471454284514344,68.66448958100517,357.4,-83.6,,
,1518815751799000,,,94.0,14.3,0.0,,,,64.855348,-147.858516,191.9,38.471454284514344,68.66448958100517,357.5,-83.8,,
,1518815751892000,,,93.9,14.4,0.0,,,,64.855348,-147.858509,191.9,38.471454284514344,68.66448958100517,357.6,-83.9,,
,1518815752028000,,,93.9,14.6,0.0,,,,64.855347,-147.858502,192.0,38.471454284514344,68.66448958100517,357.6,-84.1,,
,1518815752152000,,,93.9,14.8,0.0,,,,64.855347,-147.858495,192.0,38.471454284514344,68.66448958100517,357.6,-84.3,,
,1518815752215000,,,94.0,14.9,0.0,,,,64.855346,-147.858486,191.9,38.471454284514344,68.66448958100517,357.6,-84.4,,
,1518815752346000,,,94.0,15.1,0.0,,,,64.855346,-147.858478,191.9,38.471454284514344,68.66448958100517,357.6,-84.6,,
,1518815752399000,,,94.0,15.1,0.0,,,,64.855345,-147.858469,191.9,38.471454284514344,68.66448958100517,357.8,-84.6,,
,1518815752593000,,,93.9,15.2,0.0,,,,64.855345,-147.858459,191.9,38.471454284514344,68.66448958100517,357.9,-84.7,,
,1518815752607000,,,93.9,15.2,0.0,,,,64.855344,-147.858449,191.9,38.471454284514344,68.66448958100517,357.9,-84.7,,
,1518815752701000,,,94.0,15.1,0.0,,,,64.855343,-147.858438,191.9,38.471454284514344,68.66448958100517,357.9,-84.6,,
,1518815752793000,,,94.1,15.0,0.0,,,,64.855342,-147.858427,191.9,38.471454284514344,68.66448958100517,357.8,-84.5,,
,1518815752904000,,,94.2,14.6,0.0,,,,64.855342,-147.858416,191.9,38.471454284514344,68.66448958100517,357.7,-84.1,,
,1518815753026000,,,94.1,12.8,0.0,,,,64.855341,-147.858403,191.7,38.471454284514344,68.66448958100517,357.8,-82.3,,
,1518815753120000,,,94.0,10.6,0.0,,,,64.85534,-147.858391,191.7,38.471454284514344,68.66448958100517,358.0,-80.1,,
,1518815753198000,,,93.9,8.4,0.0,,,,64.85534,-147.858378,191.9,38.471454284514344,68.66448958100517,358.1,-77.9,,
,1518815753299000,,,93.8,6.6,0.0,,,,64.855339,-147.858366,191.9,38.471454284514344,68.66448958100517,358.2,-76.1,,
,1518815753393000,,,93.7,5.1,0.0,,,,64.855338,-147.858353,191.7,38.471454284514344,68.66448958100517,358.3,-74.6,,
,1518815753522000,,,93.6,4.0,0.0,,,,64.855338,-147.85834,191.7,38.471454284514344,68.66448958100517,358.4,-73.5,,
,1518815753613000,,,93.6,2.9,0.0,,,,64.855337,-147.858327,191.7,38.471454284514344,68.66448958100517,358.4,-72.4,,
,1518815753719000,,,93.6,2.1,0.0,,,,64.855336,-147.858315,191.7,38.471454284514344,68.66448958100517,358.4,-71.6,,
,1518815753818000,,,93.6,1.5,0.0,,,,64.855336,-147.858302,191.7,38.471454284514344,68.66448958100517,358.4,-71.0,,
,1518815753893000,,,93.5,1.1,0.0,,,,64.855335,-147.858289,191.7,38.471454284514344,68.66448958100517,358.6,-70.6,,
,1518815754026000,,,93.6,0.7,0.0,,,,64.855335,-147.858277,191.7,38.471454284514344,68.66448958100517,358.5,-70.2,,
,1518815754149000,,,93.6,0.4,0.0,,,,64.855334,-147.858264,191.7,38.471454284514344,68.66448958100517,358.7,-69.9,,
,1518815754219000,,,93.6,0.3,0.0,,,,64.855334,-147.858252,191.7,38.471454284514344,68.66448958100517,358.7,-69.8,,
,1518815754351000,,,93.6,0.1,0.0,,,,64.855333,-147.85824,191.7,38.471454284514344,68.66448958100517,358.7,-69.6,,
,1518815754396000,,,93.6,0.1,0.0,,,,64.855333,-147.858228,191.7,38.471454284514344,68.66448958100517,358.8,-69.6,,
,1518815754505000,,,93.6,0.3,0.0,,,,64.855332,-147.858216,191.7,38.471454284514344,68.66448958100517,358.8,-69.8,,
,1518815754594000,,,93.6,0.5,0.0,,,,64.855332,-147.858204,191.7,38.471454284514344,68.66448958100517,358.8,-70.0,,
,1518815754703000,,,93.7,0.6,0.0,,,,64.855331,-147.858193,191.7,38.471454284514344,68.66448958100517,358.8,-70.1,,
,1518815754811000,,,93.7,0.6,0.0,,,,64.855331,-147.858181,191.7,38.471454284514344,68.66448958100517,358.8,-70.1,,
,1518815754898000,,,93.7,0.7,0.0,,,,64.855331,-147.858169,191.7,38.471454284514344,68.66448958100517,358.8,-70.2,,
,1518815754994000,,,93.7,0.8,0.0,,,,64.85533,-147.858158,191.7,38.471454284514344,68.66448958100517,358.8,-70.3,,
,1518815755120000,,,93.7,0.8,0.0,,,,64.85533,-147.858147,191.7,38.471454284514344,68.66448958100517,358.8,-70.3,,
,1518815755199000,,,93.7,0.8,0.0,,,,64.85533,-147.858135,191.7,38.471454284514344,68.66448958100517,358.8,-70.3,,
,1518815755321000,,,93.7,1.1,0.0,,,,64.855329,-147.858124,191.7,38.471454284514344,68.66448958100517,358.8,-70.6,,
,1518815755393000,,,93.8,1.2,0.0,,,,64.855329,-147.858113,191.7,38.471454284514344,68.66448958100517,358.8,-70.7,,
,1518815755498000,,,93.7,1.3,0.0,,,,64.855329,-147.858102,191.7,38.471454284514344,68.66448958100517,358.9,-70.8,,
,1518815755604000,,,93.7,1.4,0.0,,,,64.855328,-147.85809,191.7,38.471454284514344,68.66448958100517,358.9,-70.9,,
,1518815755706000,,,93.7,1.5,0.0,,,,64.855328,-147.858079,191.7,38.471454284514344,68.66448958100517,358.9,-71.0,,
,1518815755794000,,,93.8,1.6,0.0,,,,64.855328,-147.858068,191.7,38.471454284514344,68.66448958100517,359.0,-71.1,,
,1518815755903000,,,93.8,1.7,0.0,,,,64.855327,-147.858058,191.7,38.471454284514344,68.66448958100517,359.0,-71.2,,
,1518815756000000,,,93.7,1.8,0.0,,,,64.855327,-147.858047,191.7,38.471454284514344,68.66448958100517,359.1,-71.3,,
,1518815756121000,,,93.8,2.0,0.0,,,,64.855327,-147.858037,191.7,38.471454284514344,68.66448958100517,359.0,-71.5,,
,1518815756223000,,,93.8,2.2,0.0,,,,64.855326,-147.858026,191.7,38.471454284514344,68.66448958100517,359.0,-71.7,,
,1518815756330000,,,93.8,2.4,0.0,,,,64.855326,-147.858015,191.7,38.471454284514344,68.66448958100517,359.1,-71.9,,
,1518815756394000,,,93.9,2.5,0.0,,,,64.855326,-147.858004,191.7,38.471454284514344,68.66448958100517,359.0,-72.0,,
,1518815756626000,,,93.8,2.6,0.0,,,,64.855325,-147.857995,191.7,38.471454284514344,68.66448958100517,359.1,-72.1,,
,1518815756680000,,,93.8,2.8,0.0,,,,64.855325,-147.857984,191.7,38.471454284514344,68.66448958100517,359.1,-72.3,,
,1518815756768000,,,93.8,2.9,0.0,,,,64.855324,-147.857974,191.7,38.471454284514344,68.66448958100517,359.1,-72.4,,
,1518815756796000,,,93.8,3.0,0.0,,,,64.855324,-147.857963,191.7,38.471454284514344,68.66448958100517,359.1,-72.5,,
,1518815756898000,,,93.9,3.2,0.0,,,,64.855324,-147.857953,191.7,38.471454284514344,68.66448958100517,359.0,-72.7,,
,1518815756999000,,,93.9,3.2,0.0,,,,64.855323,-147.857943,191.7,38.471454284514344,68.66448958100517,359.1,-72.7,,
,1518815757129000,,,93.9,3.4,0.0,,,,64.855323,-147.857933,191.7,38.471454284514344,68.66448958100517,359.1,-72.9,,
,1518815757227000,,,93.9,3.4,0.0,,,,64.855322,-147.857922,191.7,38.471454284514344,68.66448958100517,359.1,-72.9,,
,1518815757320000,,,93.9,3.4,0.0,,,,64.855322,-147.857912,191.7,38.471454284514344,68.66448958100517,359.1,-72.9,,
,1518815757408000,,,93.9,3.5,0.0,,,,64.855321,-147.857902,191.7,38.471454284514344,68.66448958100517,359.1,-73.0,,
,1518815757618000,,,93.9,3.6,0.0,,,,64.855321,-147.857892,191.7,38.471454284514344,68.66448958100517,359.1,-73.1,,
,1518815757683000,,,93.9,3.6,0.0,,,,64.85532,-147.857882,191.7,38.471454284514344,68.66448958100517,359.1,-73.1,,
,1518815757710000,,,93.8,3.7,0.0,,,,64.85532,-147.857872,191.7,38.471454284514344,68.66448958100517,359.2,-73.2,,
,1518815757800000,,,93.8,3.7,0.0,,,,64.855319,-147.857861,191.7,38.471454284514344,68.66448958100517,359.2,-73.2,,
,1518815757894000,,,93.8,3.7,0.0,,,,64.855319,-147.857851,191.7,38.471454284514344,68.66448958100517,359.2,-73.2,,
,1518815758006000,,,93.8,3.7,0.0,,,,64.855318,-147.857841,191.7,38.471454284514344,68.66448958100517,359.2,-73.2,,
,1518815758118000,,,93.8,3.8,0.0,,,,64.855318,-147.857831,191.7,38.471454284514344,68.66448958100517,359.2,-73.3,,
,1518815758220000,,,93.8,3.8,0.0,,,,64.855317,-147.857821,191.7,38.471454284514344,68.66448958100517,359.2,-73.3,,
,1518815758320000,,,93.8,3.9,0.0,,,,64.855317,-147.85781,191.7,38.471454284514344,68.66448958100517,359.2,-73.4,,
,1518815758391000,,,93.9,3.7,0.0,,,,64.855316,-147.8578,191.5,38.471454284514344,68.66448958100517,359.1,-73.2,,
,1518815758635000,,,93.9,3.9,0.0,,,,64.855315,-147.85779,191.5,38.471454284514344,68.66448958100517,359.1,-73.4,,
,1518815758667000,,,93.9,3.9,0.0,,,,64.855315,-147.85778,191.7,38.471454284514344,68.66448958100517,359.1,-73.4,,
,1518815758743000,,,94.0,4.0,0.0,,,,64.855314,-147.85777,191.7,38.471454284514344,68.66448958100517,359.0,-73.5,,
,1518815758805000,,,94.0,4.1,0.0,,,,64.855314,-147.85776,191.7,38.471454284514344,68.66448958100517,359.0,-73.6,,
,1518815758918000,,,94.0,4.1,0.0,,,,64.855313,-147.857749,191.7,38.471454284514344,68.66448958100517,359.0,-73.6,,
,1518815759017000,,,94.0,4.1,0.0,,,,64.855313,-147.857739,191.7,38.471454284514344,68.66448958100517,359.0,-73.6,,
,1518815759152000,,,93.9,4.0,0.0,,,,64.855312,-147.857729,191.5,38.471454284514344,68.66448958100517,359.2,-73.5,,
,1518815759191000,,,93.9,4.0,0.0,,,,64.855312,-147.857719,191.5,38.471454284514344,68.66448958100517,359.2,-73.5,,
,1518815759407000,,,93.9,4.1,0.0,,,,64.85531,-147.857698,191.5,38.471454284514344,68.66448958100517,359.2,-73.6,,
,1518815759493000,,,93.9,4.0,0.0,,,,64.85531,-147.857688,191.5,38.471454284514344,68.66448958100517,359.2,-73.5,,
,1518815759603000,,,94.0,3.9,0.0,,,,64.855309,-147.857678,191.5,38.471454284514344,68.66448958100517,359.1,-73.4,,
,1518815759712000,,,94.0,4.1,0.0,,,,64.855309,-147.857668,191.5,38.471454284514344,68.66448958100517,359.1,-73.6,,
,1518815759820000,,,93.9,4.1,0.0,,,,64.855308,-147.857658,191.5,38.471454284514344,68.66448958100517,359.2,-73.6,,
,1518815759899000,,,93.9,4.1,0.0,,,,64.855308,-147.857647,191.5,38.471454284514344,68.66448958100517,359.2,-73.6,,
,1518815760032000,,,93.9,4.2,0.0,,,,64.855307,-147.857637,191.5,38.471454284514344,68.66448958100517,359.2,-73.7,,
,1518815760112000,,,93.9,4.2,0.0,,,,64.855307,-147.857627,191.5,38.471454284514344,68.66448958100517,359.2,-73.7,,
,1518815760208000,,,93.9,4.2,0.0,,,,64.855306,-147.857617,191.5,38.471454284514344,68.66448958100517,359.2,-73.7,,
,1518815760323000,,,93.9,4.2,0.0,,,,64.855305,-147.857607,191.5,38.471454284514344,68.66448958100517,359.2,-73.7,,
,1518815760434000,,,93.9,4.2,0.0,,,,64.855305,-147.857596,191.5,38.471454284514344,68.66448958100517,359.2,-73.7,,
,1518815760599000,,,93.9,4.1,0.0,,,,64.855304,-147.857586,191.5,38.471454284514344,68.66448958100517,359.2,-73.6,,
,1518815760654000,,,93.9,4.2,0.0,,,,64.855304,-147.857576,191.5,38.471454284514344,68.66448958100517,359.2,-73.7,,
,1518815760711000,,,93.9,4.1,0.0,,,,64.855303,-147.857566,191.5,38.471454284514344,68.66448958100517,359.2,-73.6,,
,1518815760796000,,,93.9,4.0,0.0,,,,64.855303,-147.857555,191.5,38.471454284514344,68.66448958100517,359.2,-73.5,,
,1518815760914000,,,93.8,3.9,0.0,,,,64.855302,-147.857545,191.5,38.471454284514344,68.66448958100517,359.3,-73.4,,
,1518815760999000,,,93.8,3.7,0.0,,,,64.855302,-147.857534,191.5,38.471454284514344,68.66448958100517,359.3,-73.2,,
,1518815761131000,,,93.8,3.9,0.0,,,,64.855301,-147.857524,191.5,38.471454284514344,68.66448958100517,359.3,-73.4,,
,1518815761199000,,,93.8,4.0,0.0,,,,64.855301,-147.857514,191.5,38.471454284514344,68.66448958100517,359.5,-73.5,,
,1518815761399000,,,93.9,3.9,0.0,,,,64.8553,-147.857493,191.5,38.471454284514344,68.66448958100517,359.4,-73.4,,
,1518815761621000,,,93.9,3.8,0.0,,,,64.855299,-147.857483,191.5,38.471454284514344,68.66448958100517,359.4,-73.3,,
,1518815761672000,,,94.0,3.8,0.0,,,,64.855299,-147.857472,191.5,38.471454284514344,68.66448958100517,359.3,-73.3,,
,1518815761739000,,,94.0,3.8,0.0,,,,64.855298,-147.857462,191.5,38.471454284514344,68.66448958100517,359.3,-73.3,,
,1518815761807000,,,94.0,3.8,0.0,,,,64.855297,-147.857452,191.5,38.471454284514344,68.66448958100517,359.3,-73.3,,
,1518815761921000,,,93.9,3.7,0.0,,,,64.855297,-147.857441,191.5,38.471454284514344,68.66448958100517,359.4,-73.2,,
,1518815762021000,,,93.9,3.7,0.0,,,,64.855296,-147.857431,191.5,38.471454284514344,68.66448958100517,359.4,-73.2,,
,1518815762111000,,,93.8,3.7,0.0,,,,64.855296,-147.857421,191.5,38.471454284514344,68.66448958100517,359.5,-73.2,,
,1518815762212000,,,93.8,3.6,0.0,,,,64.855295,-147.85741,191.5,38.471454284514344,68.66448958100517,359.5,-73.1,,
,1518815762299000,,,93.7,3.9,0.0,,,,64.855295,-147.8574,191.5,38.471454284514344,68.66448958100517,359.6,-73.4,,
,1518815762399000,,,93.7,4.1,0.0,,,,64.855294,-147.85739,191.5,38.471454284514344,68.66448958100517,359.6,-73.6,,
,1518815762545000,,,93.7,4.1,0.0,,,,64.855294,-147.857379,191.5,38.471454284514344,68.66448958100517,359.6,-73.6,,
,1518815762601000,,,93.7,4.2,0.0,,,,64.855293,-147.857369,191.5,38.471454284514344,68.66448958100517,359.6,-73.7,,
,1518815762700000,,,93.7,4.2,0.0,,,,64.855293,-147.857359,191.5,38.471454284514344,68.66448958100517,359.6,-73.7,,
,1518815762800000,,,93.7,4.4,0.0,,,,64.855292,-147.857349,191.5,38.471454284514344,68.66448958100517,359.6,-73.9,,
,1518815762901000,,,93.7,4.5,0.0,,,,64.855292,-147.857338,191.5,38.471454284514344,68.66448958100517,359.6,-74.0,,
,1518815763018000,,,93.7,4.6,0.0,,,,64.855291,-147.857328,191.5,38.471454284514344,68.66448958100517,359.6,-74.1,,
,1518815763093000,,,93.8,4.7,0.0,,,,64.855291,-147.857318,191.5,38.471454284514344,68.66448958100517,359.5,-74.2,,
,1518815763197000,,,93.8,4.7,0.0,,,,64.85529,-147.857308,191.5,38.471454284514344,68.66448958100517,359.5,-74.2,,
,1518815763315000,,,93.9,4.6,0.0,,,,64.85529,-147.857297,191.5,38.471454284514344,68.66448958100517,359.4,-74.1,,
,1518815763400000,,,93.9,4.4,0.0,,,,64.855289,-147.857287,191.5,38.471454284514344,68.66448958100517,359.4,-73.9,,
,1518815763500000,,,93.8,4.2,0.0,,,,64.855289,-147.857276,191.4,38.471454284514344,68.66448958100517,359.5,-73.7,,
,1518815763601000,,,93.8,4.2,0.0,,,,64.855288,-147.857266,191.4,38.471454284514344,68.66448958100517,359.5,-73.7,,
,1518815763691000,,,93.8,4.2,0.0,,,,64.855288,-147.857255,191.4,38.471454284514344,68.66448958100517,359.5,-73.7,,
,1518815763801000,,,93.8,4.2,0.0,,,,64.855287,-147.857245,191.4,38.471454284514344,68.66448958100517,359.5,-73.7,,
,1518815763901000,,,93.9,4.4,0.0,,,,64.855287,-147.857235,191.4,38.471454284514344,68.66448958100517,359.4,-73.9,,
,1518815764001000,,,93.9,4.4,0.0,,,,64.855286,-147.857224,191.4,38.471454284514344,68.66448958100517,359.4,-73.9,,
,1518815764111000,,,93.9,4.4,0.0,,,,64.855286,-147.857214,191.4,38.471454284514344,68.66448958100517,359.4,-73.9,,
,1518815764231000,,,93.9,4.4,0.0,,,,64.855285,-147.857204,191.4,38.471454284514344,68.66448958100517,359.4,-73.9,,
,1518815764333000,,,93.9,4.2,0.0,,,,64.855285,-147.857193,191.4,38.471454284514344,68.66448958100517,359.4,-73.7,,
,1518815764398000,,,93.8,4.4,0.0,,,,64.855284,-147.857183,191.4,38.471454284514344,68.66448958100517,359.5,-73.9,,
,1518815764498000,,,93.9,4.2,0.0,,,,64.855283,-147.857173,191.4,38.471454284514344,68.66448958100517,359.4,-73.7,,
,1518815764598000,,,93.9,4.4,0.0,,,,64.855283,-147.857162,191.4,38.471454284514344,68.66448958100517,359.4,-73.9,,
,1518815764699000,,,93.9,4.5,0.0,,,,64.855282,-147.857152,191.4,38.471454284514344,68.66448958100517,359.4,-74.0,,
,1518815764799000,,,93.9,4.5,0.0,,,,64.855282,-147.857142,191.4,38.471454284514344,68.66448958100517,359.4,-74.0,,
,1518815764897000,,,93.8,4.5,0.0,,,,64.855281,-147.857131,191.4,38.471454284514344,68.66448958100517,359.5,-74.0,,
,1518815765033000,,,93.8,4.7,0.0,,,,64.855281,-147.857121,191.4,38.471454284514344,68.66448958100517,359.5,-74.2,,
,1518815765167000,,,93.8,4.7,0.0,,,,64.85528,-147.85711,191.4,38.471454284514344,68.66448958100517,359.5,-74.2,,
,1518815765209000,,,93.9,4.7,0.0,,,,64.855279,-147.8571,191.4,38.471454284514344,68.66448958100517,359.4,-74.2,,
,1518815765298000,,,93.9,4.9,0.0,,,,64.855279,-147.85709,191.2,38.471454284514344,68.66448958100517,359.4,-74.4,,
,1518815765416000,,,93.9,5.0,0.0,,,,64.855278,-147.85708,191.4,38.471454284514344,68.66448958100517,359.4,-74.5,,
,1518815765615000,,,93.9,5.1,0.0,,,,64.855277,-147.857059,191.4,38.471454284514344,68.66448958100517,359.5,-74.6,,
,1518815765716000,,,93.9,5.0,0.0,,,,64.855277,-147.857049,191.4,38.471454284514344,68.66448958100517,359.5,-74.5,,
,1518815765802000,,,93.9,5.0,0.0,,,,64.855276,-147.857038,191.4,38.471454284514344,68.66448958100517,359.5,-74.5,,
,1518815765899000,,,93.9,4.9,0.0,,,,64.855276,-147.857028,191.2,38.471454284514344,68.66448958100517,359.5,-74.4,,
,1518815765999000,,,93.9,4.7,0.0,,,,64.855275,-147.857017,191.2,38.471454284514344,68.66448958100517,359.5,-74.2,,
,1518815766115000,,,93.9,4.5,0.0,,,,64.855275,-147.857007,191.2,38.471454284514344,68.66448958100517,359.5,-74.0,,
,1518815766220000,,,93.9,4.2,0.0,,,,64.855274,-147.856996,191.4,38.471454284514344,68.66448958100517,359.5,-73.7,,
,1518815766311000,,,93.9,4.4,0.0,,,,64.855274,-147.856986,191.4,38.471454284514344,68.66448958100517,359.5,-73.9,,
,1518815766415000,,,93.9,4.5,0.0,,,,64.855273,-147.856976,191.4,38.471454284514344,68.66448958100517,359.5,-74.0,,
,1518815766516000,,,94.0,4.7,0.0,,,,64.855272,-147.856965,191.4,38.471454284514344,68.66448958100517,359.4,-74.2,,
,1518815766615000,,,94.0,4.6,0.0,,,,64.855272,-147.856955,191.4,38.471454284514344,68.66448958100517,359.4,-74.1,,
,1518815766701000,,,93.9,4.7,0.0,,,,64.855271,-147.856945,191.4,38.471454284514344,68.66448958100517,359.5,-74.2,,
,1518815766799000,,,93.9,4.7,0.0,,,,64.855271,-147.856934,191.2,38.471454284514344,68.66448958100517,359.5,-74.2,,
,1518815766915000,,,93.9,4.8,0.0,,,,64.85527,-147.856924,191.2,38.471454284514344,68.66448958100517,359.5,-74.3,,
,1518815767020000,,,93.9,4.8,0.0,,,,64.855269,-147.856913,191.2,38.471454284514344,68.66448958100517,359.5,-74.3,,
,1518815767097000,,,93.9,4.8,0.0,,,,64.855269,-147.856903,191.2,38.471454284514344,68.66448958100517,359.5,-74.3,,
,1518815767216000,,,93.9,4.8,0.0,,,,64.855268,-147.856893,191.2,38.471454284514344,68.66448958100517,359.5,-74.3,,
,1518815767306000,,,93.9,4.8,0.0,,,,64.855268,-147.856882,191.2,38.471454284514344,68.66448958100517,359.5,-74.3,,
,1518815767414000,,,93.9,5.0,0.0,,,,64.855267,-147.856872,191.2,38.471454284514344,68.66448958100517,359.5,-74.5,,
,1518815767637000,,,94.0,5.0,0.0,,,,64.855267,-147.856861,191.2,38.471454284514344,68.66448958100517,359.4,-74.5,,
,1518815767683000,,,94.0,5.0,0.0,,,,64.855266,-147.856851,191.4,38.471454284514344,68.66448958100517,359.4,-74.5,,
,1518815767768000,,,94.0,5.0,0.0,,,,64.855266,-147.85684,191.4,38.471454284514344,68.66448958100517,359.4,-74.5,,
,1518815767818000,,,93.9,5.1,0.0,,,,64.855265,-147.85683,191.4,38.471454284514344,68.66448958100517,359.5,-74.6,,
,1518815767926000,,,94.0,5.0,0.0,,,,64.855265,-147.856819,191.4,38.471454284514344,68.66448958100517,359.4,-74.5,,
,1518815768036000,,,94.0,5.0,0.0,,,,64.855264,-147.856809,191.4,38.471454284514344,68.66448958100517,359.4,-74.5,,
,1518815768113000,,,93.9,4.9,0.0,,,,64.855264,-147.856798,191.4,38.471454284514344,68.66448958100517,359.5,-74.4,,
,1518815768198000,,,93.9,4.9,0.0,,,,64.855263,-147.856788,191.4,38.471454284514344,68.66448958100517,359.5,-74.4,,
,1518815768300000,,,93.9,4.9,0.0,,,,64.855263,-147.856777,191.4,38.471454284514344,68.66448958100517,359.5,-74.4,,
,1518815768399000,,,93.9,5.0,0.0,,,,64.855262,-147.856767,191.4,38.471454284514344,68.66448958100517,359.5,-74.5,,
,1518815768512000,,,94.0,4.9,0.0,,,,64.855262,-147.856756,191.4,38.471454284514344,68.66448958100517,359.4,-74.4,,
,1518815768598000,,,94.1,4.7,0.0,,,,64.855261,-147.856746,191.4,38.471454284514344,68.66448958100517,359.3,-74.2,,
,1518815768700000,,,94.1,4.4,0.0,,,,64.85526,-147.856735,191.4,38.471454284514344,68.66448958100517,359.3,-73.9,,
,1518815768793000,,,94.1,4.2,0.0,,,,64.85526,-147.856724,191.4,38.471454284514344,68.66448958100517,359.3,-73.7,,
,1518815768893000,,,94.1,4.2,0.0,,,,64.855259,-147.856714,191.4,38.471454284514344,68.66448958100517,359.3,-73.7,,
,1518815769011000,,,94.0,4.0,0.0,,,,64.855259,-147.856703,191.4,38.471454284514344,68.66448958100517,359.4,-73.5,,
,1518815769094000,,,93.9,3.8,0.0,,,,64.855258,-147.856693,191.4,38.471454284514344,68.66448958100517,359.5,-73.3,,
,1518815769212000,,,93.9,4.0,0.0,,,,64.855258,-147.856682,191.2,38.471454284514344,68.66448958100517,359.5,-73.5,,
,1518815769303000,,,93.9,3.9,0.0,,,,64.855257,-147.856672,191.2,38.471454284514344,68.66448958100517,359.5,-73.4,,
,1518815769551000,,,93.9,4.1,0.0,,,,64.855256,-147.856651,191.2,38.471454284514344,68.66448958100517,359.5,-73.6,,
,1518815769631000,,,93.9,4.1,0.0,,,,64.855255,-147.85664,191.2,38.471454284514344,68.66448958100517,359.5,-73.6,,
,1518815769715000,,,93.9,4.2,0.0,,,,64.855255,-147.856629,191.2,38.471454284514344,68.66448958100517,359.5,-73.7,,
,1518815769828000,,,93.9,4.2,0.0,,,,64.855254,-147.856619,191.2,38.471454284514344,68.66448958100517,359.5,-73.7,,
,1518815769920000,,,93.9,4.2,0.0,,,,64.855254,-147.856608,191.2,38.471454284514344,68.66448958100517,359.5,-73.7,,
,1518815770032000,,,93.9,4.2,0.0,,,,64.855253,-147.856598,191.4,38.471454284514344,68.66448958100517,359.5,-73.7,,
,1518815770150000,,,93.9,4.2,0.0,,,,64.855253,-147.856587,191.4,38.471454284514344,68.66448958100517,359.5,-73.7,,
,1518815770221000,,,93.9,4.1,0.0,,,,64.855252,-147.856577,191.4,38.471454284514344,68.66448958100517,359.5,-73.6,,
,1518815770319000,,,93.9,4.2,0.0,,,,64.855252,-147.856567,191.4,38.471454284514344,68.66448958100517,359.5,-73.7,,
,1518815770418000,,,93.9,4.2,0.0,,,,64.855251,-147.856556,191.4,38.471454284514344,68.66448958100517,359.5,-73.7,,
,1518815770644000,,,93.9,4.2,0.0,,,,64.855251,-147.856546,191.4,38.471454284514344,68.66448958100517,359.5,-73.7,,
,1518815770700000,,,93.9,4.2,0.0,,,,64.85525,-147.856535,191.4,38.471454284514344,68.66448958100517,359.5,-73.7,,
,1518815770825000,,,93.9,4.4,0.0,,,,64.85525,-147.856525,191.4,38.471454284514344,68.66448958100517,359.5,-73.9,,
,1518815770854000,,,93.9,4.2,0.0,,,,64.85525,-147.856514,191.4,38.471454284514344,68.66448958100517,359.5,-73.7,,
,1518815771006000,,,93.9,4.2,0.0,,,,64.855249,-147.856504,191.4,38.471454284514344,68.66448958100517,359.5,-73.7,,
,1518815771045000,,,93.9,4.2,0.0,,,,64.855249,-147.856494,191.4,38.471454284514344,68.66448958100517,359.6,-73.7,,
,1518815771204000,,,93.9,4.2,0.0,,,,64.855248,-147.856483,191.4,38.471454284514344,68.66448958100517,359.5,-73.7,,
,1518815771246000,,,93.8,4.2,0.0,,,,64.855248,-147.856473,191.4,38.471454284514344,68.66448958100517,359.7,-73.7,,
,1518815771300000,,,93.8,4.2,0.0,,,,64.855247,-147.856462,191.4,38.471454284514344,68.66448958100517,359.7,-73.7,,
,1518815771500000,,,93.8,4.2,0.0,,,,64.855246,-147.856441,191.4,38.471454284514344,68.66448958100517,359.7,-73.7,,
,1518815771599000,,,93.9,4.5,0.0,,,,64.855245,-147.856431,191.4,38.471454284514344,68.66448958100517,359.6,-74.0,,
,1518815771699000,,,94.0,4.5,0.0,,,,64.855245,-147.856421,191.4,38.471454284514344,68.66448958100517,359.5,-74.0,,
,1518815771799000,,,94.0,4.5,0.0,,,,64.855244,-147.85641,191.4,38.471454284514344,68.66448958100517,359.5,-74.0,,
,1518815771900000,,,94.0,4.2,0.0,,,,64.855244,-147.8564,191.4,38.471454284514344,68.66448958100517,359.5,-73.7,,
,1518815772003000,,,93.9,4.1,0.0,,,,64.855243,-147.85639,191.4,38.471454284514344,68.66448958100517,359.6,-73.6,,
,1518815772104000,,,93.9,3.9,0.0,,,,64.855243,-147.856379,191.4,38.471454284514344,68.66448958100517,359.6,-73.4,,
,1518815772194000,,,93.8,3.9,0.0,,,,64.855242,-147.856369,191.4,38.471454284514344,68.66448958100517,359.7,-73.4,,
,1518815772292000,,,93.8,3.9,0.0,,,,64.855242,-147.856358,191.4,38.471454284514344,68.66448958100517,359.7,-73.4,,
,1518815772400000,,,93.8,4.0,0.0,,,,64.855241,-147.856348,191.4,38.471454284514344,68.66448958100517,359.7,-73.5,,
,1518815772502000,,,93.8,3.9,0.0,,,,64.855241,-147.856337,191.4,38.471454284514344,68.66448958100517,359.7,-73.4,,
,1518815772598000,,,93.8,4.0,0.0,,,,64.85524,-147.856327,191.5,38.471454284514344,68.66448958100517,359.7,-73.5,,
,1518815772711000,,,93.9,3.9,0.0,,,,64.85524,-147.856316,191.5,38.471454284514344,68.66448958100517,359.6,-73.4,,
,1518815772818000,,,93.9,3.8,0.0,,,,64.855239,-147.856306,191.5,38.471454284514344,68.66448958100517,359.6,-73.3,,
,1518815772918000,,,93.9,3.6,0.0,,,,64.855239,-147.856295,191.5,38.471454284514344,68.66448958100517,359.6,-73.1,,
,1518815773035000,,,93.8,3.6,0.0,,,,64.855238,-147.856285,191.5,38.471454284514344,68.66448958100517,359.7,-73.1,,
,1518815773103000,,,93.8,3.8,0.0,,,,64.855238,-147.856274,191.5,38.471454284514344,68.66448958100517,359.7,-73.3,,
,1518815773202000,,,93.8,3.9,0.0,,,,64.855237,-147.856264,191.5,38.471454284514344,68.66448958100517,359.7,-73.4,,
,1518815773302000,,,93.9,4.1,0.0,,,,64.855237,-147.856253,191.5,38.471454284514344,68.66448958100517,359.6,-73.6,,
,1518815773400000,,,93.9,4.0,0.0,,,,64.855236,-147.856243,191.5,38.471454284514344,68.66448958100517,359.6,-73.5,,
,1518815773496000,,,93.9,3.9,0.0,,,,64.855235,-147.856232,191.5,38.471454284514344,68.66448958100517,359.6,-73.4,,
,1518815773619000,,,93.8,3.7,0.0,,,,64.855235,-147.856222,191.5,38.471454284514344,68.66448958100517,359.7,-73.2,,
,1518815773707000,,,93.8,3.6,0.0,,,,64.855234,-147.856211,191.4,38.471454284514344,68.66448958100517,359.7,-73.1,,
,1518815773794000,,,93.9,3.7,0.0,,,,64.855234,-147.856201,191.4,38.471454284514344,68.66448958100517,359.6,-73.2,,
,1518815773902000,,,94.0,3.7,0.0,,,,64.855233,-147.85619,191.4,38.471454284514344,68.66448958100517,359.5,-73.2,,
,1518815774021000,,,94.0,3.3,0.0,,,,64.855233,-147.856179,191.4,38.471454284514344,68.66448958100517,359.5,-72.8,,
,1518815774152000,,,93.9,3.0,0.0,,,,64.855232,-147.856169,191.4,38.471454284514344,68.66448958100517,359.6,-72.5,,
,1518815774202000,,,93.9,2.8,0.0,,,,64.855231,-147.856158,191.4,38.471454284514344,68.66448958100517,359.6,-72.3,,
,1518815774293000,,,93.9,2.7,0.0,,,,64.855231,-147.856147,191.4,38.471454284514344,68.66448958100517,359.6,-72.2,,
,1518815774394000,,,93.9,2.6,0.0,,,,64.85523,-147.856137,191.4,38.471454284514344,68.66448958100517,359.6,-72.1,,
,1518815774501000,,,93.9,2.6,0.0,,,,64.855229,-147.856126,191.4,38.471454284514344,68.66448958100517,359.6,-72.1,,
,1518815774599000,,,94.0,2.5,0.0,,,,64.855229,-147.856116,191.4,38.471454284514344,68.66448958100517,359.5,-72.0,,
,1518815774701000,,,94.0,2.6,0.0,,,,64.855228,-147.856105,191.4,38.471454284514344,68.66448958100517,359.5,-72.1,,
,1518815774795000,,,94.1,2.8,0.0,,,,64.855228,-147.856095,191.4,38.471454284514344,68.66448958100517,359.4,-72.3,,
,1518815774898000,,,94.0,3.1,0.0,,,,64.855227,-147.856084,191.4,38.471454284514344,68.66448958100517,359.5,-72.6,,
,1518815775035000,,,94.0,3.1,0.0,,,,64.855227,-147.856074,191.4,38.471454284514344,68.66448958100517,359.5,-72.6,,
,1518815775145000,,,94.0,3.4,0.0,,,,64.855226,-147.856063,191.4,38.471454284514344,68.66448958100517,359.5,-72.9,,
,1518815775200000,,,94.0,3.4,0.0,,,,64.855225,-147.856053,191.4,38.471454284514344,68.66448958100517,359.5,-72.9,,
,1518815775301000,,,94.0,3.5,0.0,,,,64.855225,-147.856042,191.4,38.471454284514344,68.66448958100517,359.5,-73.0,,
,1518815775402000,,,94.0,3.6,0.0,,,,64.855224,-147.856032,191.4,38.471454284514344,68.66448958100517,359.5,-73.1,,
,1518815775519000,,,94.0,3.7,0.0,,,,64.855224,-147.856021,191.4,38.471454284514344,68.66448958100517,359.5,-73.2,,
,1518815775590000,,,94.0,3.9,0.0,,,,64.855223,-147.856011,191.4,38.471454284514344,68.66448958100517,359.5,-73.4,,
,1518815775692000,,,94.0,4.0,0.0,,,,64.855223,-147.856001,191.4,38.471454284514344,68.66448958100517,359.5,-73.5,,
,1518815775793000,,,94.0,4.1,0.0,,,,64.855222,-147.85599,191.4,38.471454284514344,68.66448958100517,359.5,-73.6,,
,1518815775898000,,,94.0,4.1,0.0,,,,64.855222,-147.85598,191.4,38.471454284514344,68.66448958100517,359.5,-73.6,,
,1518815776005000,,,93.9,4.0,0.0,,,,64.855221,-147.855969,191.4,38.471454284514344,68.66448958100517,359.6,-73.5,,
,1518815776124000,,,94.0,4.2,0.0,,,,64.855221,-147.855959,191.4,38.471454284514344,68.66448958100517,359.5,-73.7,,
,1518815776194000,,,94.0,4.2,0.0,,,,64.85522,-147.855949,191.4,38.471454284514344,68.66448958100517,359.5,-73.7,,
,1518815776296000,,,94.0,4.2,0.0,,,,64.85522,-147.855938,191.4,38.471454284514344,68.66448958100517,359.5,-73.7,,
,1518815776441000,,,94.0,4.2,0.0,,,,64.855219,-147.855927,191.4,38.471454284514344,68.66448958100517,359.5,-73.7,,
,1518815776506000,,,94.0,4.1,0.0,,,,64.855219,-147.855917,191.4,38.471454284514344,68.66448958100517,359.5,-73.6,,
,1518815776604000,,,94.0,3.9,0.0,,,,64.855218,-147.855906,191.4,38.471454284514344,68.66448958100517,359.5,-73.4,,
,1518815776708000,,,94.0,3.9,0.0,,,,64.855218,-147.855896,191.4,38.471454284514344,68.66448958100517,359.5,-73.4,,
,1518815776795000,,,94.0,4.0,0.0,,,,64.855217,-147.855886,191.4,38.471454284514344,68.66448958100517,359.5,-73.5,,
,1518815776905000,,,94.0,4.1,0.0,,,,64.855216,-147.855875,191.4,38.471454284514344,68.66448958100517,359.5,-73.6,,
,1518815776995000,,,94.0,4.1,0.0,,,,64.855216,-147.855865,191.4,38.471454284514344,68.66448958100517,359.5,-73.6,,
,1518815777149000,,,94.0,4.2,0.0,,,,64.855215,-147.855854,191.4,38.471454284514344,68.66448958100517,359.5,-73.7,,
,1518815777215000,,,94.0,4.2,0.0,,,,64.855215,-147.855844,191.4,38.471454284514344,68.66448958100517,359.5,-73.7,,
,1518815777309000,,,94.0,4.1,0.0,,,,64.855214,-147.855834,191.4,38.471454284514344,68.66448958100517,359.5,-73.6,,
,1518815777402000,,,94.0,4.1,0.0,,,,64.855214,-147.855823,191.4,38.471454284514344,68.66448958100517,359.5,-73.6,,
,1518815777516000,,,94.0,4.0,0.0,,,,64.855213,-147.855813,191.4,38.471454284514344,68.66448958100517,359.5,-73.5,,
,1518815777604000,,,94.0,4.0,0.0,,,,64.855213,-147.855803,191.4,38.471454284514344,68.66448958100517,359.5,-73.5,,
,1518815777714000,,,94.0,4.1,0.0,,,,64.855212,-147.855792,191.4,38.471454284514344,68.66448958100517,359.5,-73.6,,
,1518815777801000,,,94.0,4.2,0.0,,,,64.855212,-147.855782,191.4,38.471454284514344,68.66448958100517,359.5,-73.7,,
,1518815777896000,,,94.1,4.4,0.0,,,,64.855211,-147.855771,191.4,38.471454284514344,68.66448958100517,359.4,-73.9,,
,1518815778007000,,,94.1,4.4,0.0,,,,64.855211,-147.855761,191.4,38.471454284514344,68.66448958100517,359.4,-73.9,,
,1518815778141000,,,94.1,4.6,0.0,,,,64.85521,-147.855751,191.4,38.471454284514344,68.66448958100517,359.4,-74.1,,
,1518815778190000,,,94.2,4.6,0.0,,,,64.85521,-147.85574,191.4,38.471454284514344,68.66448958100517,359.3,-74.1,,
