Checksum,UNIX Time Stamp,Mission ID,Platform Tail Number,Platform Heading Angle,Platform Pitch Angle,Platform Roll Angle,Platform True Airspeed,Platform Indicated Airspeed,Platform Designation,Image Source Sensor,Image Coordinate System,Sensor Latitude,Sensor Longitude,Sensor True Altitude,Sensor Horizontal Field of View,Sensor Vertical Field of View,Sensor Relative Azimuth Angle,Sensor Relative Elevation Angle,Sensor Relative Roll Angle,Slant Range,Target Width,Frame Center Latitude,Frame Center Longitude,Frame Center Elevation,Offset Corner Latitude Point 1,Offset Corner Longitude Point 1,Offset Corner Latitude Point 2,Offset Corner Longitude Point 2,Offset Corner Latitude Point 3, Offset Corner Longitude Point 3, Offset Corner Latitude Point 4, Offset Corner Longitude Point 4, Icing Detected, Wind Direction, Wind Speed, Static Pressure, Density Altitude, Outside Air Temperature, Target Location Latitude, Target Location Longitude, Target Location Elevation, Target Track Gate Width, Target Track Gate Height, Target Error Estimate - CE90, Target Error Estimate - LE90, Generic Flag Data 01, Security Local Metadata Set, Differential Pressure, Platform Angle of Attack, Platform Vertical Speed, Platform Sideslip Angle, Airfield Barometric Pressure, Airfield Elevation, Relative Humidity, Platform Ground Speed, Ground Range, Platform Fuel Remaining, Platform Call Sign, Weapon Load, Weapon Fired, Laser PRF Code, Sensor Field of View Name, Platform Magnetic Heading, UAS LDS Version Number, Target Location Covariance Matrix, Alternate Platform Latitude, Alternate Platform Longitude, Alternate Platform Altitude, Alternate Platform Name, Alternate Platform Heading, Event Start Time - UTC, RVT Local Data Set, VMTI Local Data Set, Sensor Ellipsoid Height, Alternate Platform Ellipsoid Height, Operational Mode, Frame Center Height Above Ellipsoid, Sensor North Velocity, Sensor East Velocity, Image Horizon Pixel Pack, Corner Latitude Point 1 (Full), Corner Longitude Point 1 (Full), Corner Latitude Point 2 (Full), Corner Longitude Point 2 (Full), Corner Latitude Point 3 (Full), Corner Longitude Point 3 (Full), Corner Latitude Point 4 (Full), Corner Longitude Point 4 (Full), Platform Pitch Angle (Full), Platform Roll Angle (Full), Platform Angle of Attack (Full), Platform Sideslip Angle (Full)
,1447400964,Delta,N112AQ,289.5,-1.6,-4.3,,,DJI P3,FC300X,WGS84,64.1563768572,-145.852886587,18.9,81.2,65.5,-70.7,72.5,0,258.4071913215,,64.1563768572,-145.852886587,100,64.1565511527,-145.8530116266,64.1562757503,-145.8532350647,64.1564779641,-145.8525381093,64.1562025617,-145.8527615474,,,,,,,,,,,,,,,,,,,,,,,,,,,,,,,,,,,,,,,,,,,,,,,,,,,,,,,,,,,,
,1447400964,Delta,N112AQ,289.5,-1.6,-4.2,,,DJI P3,FC300X,WGS84,64.1563755718,-145.85288194,18.9,81.2,65.5,-70.7,89.9,0,258.4071913215,,64.1563755718,-145.85288194,100,64.1565487594,-145.8530077073,64.1562744695,-145.8532277772,64.1564766741,-145.8525361028,64.1562023842,-145.8527561727,,,,,,,,,,,,,,,,,,,,,,,,,,,,,,,,,,,,,,,,,,,,,,,,,,,,,,,,,,,,
,1447400964,Delta,N112AQ,289.5,-1.6,-4.1,,,DJI P3,FC300X,WGS84,64.1563756387,-145.852882193,18.9,81.2,65.5,-70.7,90,0,258.4106001351,,64.1563756387,-145.852882193,100,64.1565488263,-145.8530079603,64.1562745364,-145.8532280302,64.156476741,-145.8525363558,64.1562024511,-145.8527564257,,,,,,,,,,,,,,,,,,,,,,,,,,,,,,,,,,,,,,,,,,,,,,,,,,,,,,,,,,,,
,1447400964,Delta,N112AQ,289.5,-1.7,-4.1,,,DJI P3,FC300X,WGS84,64.1563755734,-145.852882231,18.9,81.2,65.5,-70.7,90,0,258.4106001351,,64.1563755734,-145.852882231,100,64.156548761,-145.8530079983,64.1562744711,-145.8532280682,64.1564766757,-145.8525363938,64.1562023858,-145.8527564637,,,,,,,,,,,,,,,,,,,,,,,,,,,,,,,,,,,,,,,,,,,,,,,,,,,,,,,,,,,,
,1447400964,Delta,N112AQ,289.5,-1.8,-4.2,,,DJI P3,FC300X,WGS84,64.1563756496,-145.852882314,18.9,81.2,65.5,-70.7,89.9,0,258.4179960462,,64.1563756496,-145.852882314,100,64.1565488372,-145.8530080813,64.1562745473,-145.8532281512,64.1564767519,-145.8525364768,64.156202462,-145.8527565467,,,,,,,,,,,,,,,,,,,,,,,,,,,,,,,,,,,,,,,,,,,,,,,,,,,,,,,,,,,,
,1447400964,Delta,N112AQ,289.5,-1.8,-4.3,,,DJI P3,FC300X,WGS84,64.1563756256,-145.852882522,18.9,81.2,65.5,-70.7,89.9,0,258.4179960462,,64.1563756256,-145.852882522,100,64.1565488132,-145.8530082893,64.1562745233,-145.8532283592,64.1564767279,-145.8525366848,64.156202438,-145.8527567547,,,,,,,,,,,,,,,,,,,,,,,,,,,,,,,,,,,,,,,,,,,,,,,,,,,,,,,,,,,,
,1447400965,Delta,N112AQ,289.5,-1.7,-4.2,,,DJI P3,FC300X,WGS84,64.1563756018,-145.852882542,18.9,81.2,65.5,-70.7,90,0,258.4302008232,,64.1563756018,-145.852882542,100,64.1565487894,-145.8530083093,64.1562744995,-145.8532283792,64.1564767041,-145.8525367048,64.1562024142,-145.8527567747,,,,,,,,,,,,,,,,,,,,,,,,,,,,,,,,,,,,,,,,,,,,,,,,,,,,,,,,,,,,
,1447400965,Delta,N112AQ,289.4,-1.4,-4.1,,,DJI P3,FC300X,WGS84,64.156375628,-145.852882801,18.9,81.2,65.5,-70.7,90,0,258.4373836853,,64.156375628,-145.852882801,100,64.1565488156,-145.8530085683,64.1562745257,-145.8532286382,64.1564767303,-145.8525369638,64.1562024404,-145.8527570337,,,,,,,,,,,,,,,,,,,,,,,,,,,,,,,,,,,,,,,,,,,,,,,,,,,,,,,,,,,,
,1447400965,Delta,N112AQ,289.4,-1.3,-4,,,DJI P3,FC300X,WGS84,64.1563756077,-145.852882803,19,81.2,65.5,-70.7,89.9,0,258.4447161118,,64.1563756077,-145.852882803,100,64.1565497116,-145.8530092357,64.1562739705,-145.85323047,64.1564772449,-145.852535136,64.1562015038,-145.8527563703,,,,,,,,,,,,,,,,,,,,,,,,,,,,,,,,,,,,,,,,,,,,,,,,,,,,,,,,,,,,
,1447400965,Delta,N112AQ,289.3,-1.2,-4.1,,,DJI P3,FC300X,WGS84,64.156375485,-145.852882985,19,81.2,65.5,-70.7,89.9,0,258.4356160484,,64.156375485,-145.852882985,100,64.1565495889,-145.8530094177,64.1562738478,-145.853230652,64.1564771222,-145.852535318,64.1562013811,-145.8527565523,,,,,,,,,,,,,,,,,,,,,,,,,,,,,,,,,,,,,,,,,,,,,,,,,,,,,,,,,,,,
,1447400965,Delta,N112AQ,289.5,-1.3,-4.1,,,DJI P3,FC300X,WGS84,64.156375504,-145.852883206,19,81.2,65.5,-70.7,90,0,258.4356160484,,64.156375504,-145.852883206,100,64.1565496079,-145.8530096387,64.1562738668,-145.853230873,64.1564771412,-145.852535539,64.1562014001,-145.8527567733,,,,,,,,,,,,,,,,,,,,,,,,,,,,,,,,,,,,,,,,,,,,,,,,,,,,,,,,,,,,
,1447400965,Delta,N112AQ,289.5,-1.3,-4,,,DJI P3,FC300X,WGS84,64.1563754782,-145.8528832,19,81.2,65.5,-70.7,90,0,258.4356160484,,64.1563754782,-145.8528832,100,64.1565495821,-145.8530096327,64.156273841,-145.853230867,64.1564771154,-145.852535533,64.1562013743,-145.8527567673,,,,,,,,,,,,,,,,,,,,,,,,,,,,,,,,,,,,,,,,,,,,,,,,,,,,,,,,,,,,
,1447400965,Delta,N112AQ,289.6,-1.3,-3.9,,,DJI P3,FC300X,WGS84,64.1563755286,-145.852883327,19,81.2,65.5,-70.7,89.9,0,258.4403334726,,64.1563755286,-145.852883327,100,64.1565496325,-145.8530097597,64.1562738914,-145.853230994,64.1564771658,-145.85253566,64.1562014247,-145.8527568943,,,,,,,,,,,,,,,,,,,,,,,,,,,,,,,,,,,,,,,,,,,,,,,,,,,,,,,,,,,,
,1447400965,Delta,N112AQ,289.5,-1.1,-3.9,,,DJI P3,FC300X,WGS84,64.1563755036,-145.852883313,19,81.2,65.5,-70.7,89.9,0,258.4403334726,,64.1563755036,-145.852883313,100,64.1565496075,-145.8530097457,64.1562738664,-145.85323098,64.1564771408,-145.852535646,64.1562013997,-145.8527568803,,,,,,,,,,,,,,,,,,,,,,,,,,,,,,,,,,,,,,,,,,,,,,,,,,,,,,,,,,,,
,1447400965,Delta,N112AQ,289.4,-1.1,-3.9,,,DJI P3,FC300X,WGS84,64.1563754825,-145.852883486,19,81.2,65.5,-70.7,90,0,258.4455682915,,64.1563754825,-145.852883486,100,64.1565495864,-145.8530099187,64.1562738453,-145.853231153,64.1564771197,-145.852535819,64.1562013786,-145.8527570533,,,,,,,,,,,,,,,,,,,,,,,,,,,,,,,,,,,,,,,,,,,,,,,,,,,,,,,,,,,,
,1447400965,Delta,N112AQ,289.4,-1.3,-3.9,,,DJI P3,FC300X,WGS84,64.1563755559,-145.852883514,19,81.2,65.5,-70.7,90,0,258.4455682915,,64.1563755559,-145.852883514,100,64.1565496598,-145.8530099467,64.1562739187,-145.853231181,64.1564771931,-145.852535847,64.156201452,-145.8527570813,,,,,,,,,,,,,,,,,,,,,,,,,,,,,,,,,,,,,,,,,,,,,,,,,,,,,,,,,,,,
,1447400966,Delta,N112AQ,289.6,-7.5,-1.2,,,DJI P3,FC300X,WGS84,64.1563755785,-145.852883684,19,81.2,65.5,-70.7,90,0,258.4555814076,,64.1563755785,-145.852883684,100,64.1565496824,-145.8530101167,64.1562739413,-145.853231351,64.1564772157,-145.852536017,64.1562014746,-145.8527572513,,,,,,,,,,,,,,,,,,,,,,,,,,,,,,,,,,,,,,,,,,,,,,,,,,,,,,,,,,,,
,1447400966,Delta,N112AQ,289.4,-11.6,0,,,DJI P3,FC300X,WGS84,64.1563759161,-145.852884402,19,81.2,65.5,-70.7,90,0,258.4555814076,,64.1563759161,-145.852884402,100,64.15655002,-145.8530108347,64.1562742789,-145.853232069,64.1564775533,-145.852536735,64.1562018122,-145.8527579693,,,,,,,,,,,,,,,,,,,,,,,,,,,,,,,,,,,,,,,,,,,,,,,,,,,,,,,,,,,,
,1447400966,Delta,N112AQ,289.5,-14.2,-2.1,,,DJI P3,FC300X,WGS84,64.1563761741,-145.852885179,19,81.2,65.5,-70.7,90,0,258.5120383733,,64.1563761741,-145.852885179,100,64.156550278,-145.8530116117,64.1562745369,-145.853232846,64.1564778113,-145.852537512,64.1562020702,-145.8527587463,,,,,,,,,,,,,,,,,,,,,,,,,,,,,,,,,,,,,,,,,,,,,,,,,,,,,,,,,,,,
,1447400966,Delta,N112AQ,289.7,-20.1,-3.2,,,DJI P3,FC300X,WGS84,64.1563765684,-145.852886562,19,81.2,65.5,-70.7,90,0,258.5120383733,,64.1563765684,-145.852886562,100,64.1565506723,-145.8530129947,64.1562749312,-145.853234229,64.1564782056,-145.852538895,64.1562024645,-145.8527601293,,,,,,,,,,,,,,,,,,,,,,,,,,,,,,,,,,,,,,,,,,,,,,,,,,,,,,,,,,,,
,1447400966,Delta,N112AQ,289.7,-22,-3.5,,,DJI P3,FC300X,WGS84,64.1563770099,-145.85288833,19,81.2,65.5,-70.7,90,0,258.6280568882,,64.1563770099,-145.85288833,100,64.1565511138,-145.8530147627,64.1562753727,-145.853235997,64.1564786471,-145.852540663,64.156202906,-145.8527618973,,,,,,,,,,,,,,,,,,,,,,,,,,,,,,,,,,,,,,,,,,,,,,,,,,,,,,,,,,,,
,1447400966,Delta,N112AQ,289.7,-22.1,-3.6,,,DJI P3,FC300X,WGS84,64.1563777474,-145.85289031,19.1,81.2,65.5,-70.7,90,0,258.6354225735,,64.1563777474,-145.85289031,100,64.1565527677,-145.8530174082,64.1562755753,-145.8532398068,64.1564799195,-145.8525408132,64.1562027271,-145.8527632118,,,,,,,,,,,,,,,,,,,,,,,,,,,,,,,,,,,,,,,,,,,,,,,,,,,,,,,,,,,,
,1447400966,Delta,N112AQ,289.6,-21.7,-3.5,,,DJI P3,FC300X,WGS84,64.1563783539,-145.852893131,19.1,81.2,65.5,-70.7,90,0,258.8412802727,,64.1563783539,-145.852893131,100,64.1565533742,-145.8530202292,64.1562761818,-145.8532426278,64.156480526,-145.8525436342,64.1562033336,-145.8527660328,,,,,,,,,,,,,,,,,,,,,,,,,,,,,,,,,,,,,,,,,,,,,,,,,,,,,,,,,,,,
,1447400967,Delta,N112AQ,289.2,-20.7,-3.4,,,DJI P3,FC300X,WGS84,64.1563800772,-145.852899515,19,81.2,65.5,-70.8,90,0,258.8339204455,,64.1563800772,-145.852899515,100,64.1565540846,-145.8530266437,64.1562781753,-145.8532467751,64.1564819791,-145.8525522549,64.1562060698,-145.8527723863,,,,,,,,,,,,,,,,,,,,,,,,,,,,,,,,,,,,,,,,,,,,,,,,,,,,,,,,,,,,
,1447400967,Delta,N112AQ,289.1,-20.5,-3.4,,,DJI P3,FC300X,WGS84,64.1563814188,-145.852903751,19,81.2,65.5,-70.8,90,0,259.2856729288,,64.1563814188,-145.852903751,100,64.1565554262,-145.8530308798,64.1562795169,-145.8532510111,64.1564833207,-145.8525564909,64.1562074114,-145.8527766223,,,,,,,,,,,,,,,,,,,,,,,,,,,,,,,,,,,,,,,,,,,,,,,,,,,,,,,,,,,,
,1447400967,Delta,N112AQ,289.2,-20.4,-3.4,,,DJI P3,FC300X,WGS84,64.1563824027,-145.852908385,19,81.2,65.5,-70.8,90,0,259.2856729288,,64.1563824027,-145.852908385,100,64.1565564101,-145.8530355138,64.1562805008,-145.8532556451,64.1564843046,-145.8525611249,64.1562083953,-145.8527812562,,,,,,,,,,,,,,,,,,,,,,,,,,,,,,,,,,,,,,,,,,,,,,,,,,,,,,,,,,,,
,1447400967,Delta,N112AQ,289.1,-20.3,-3.4,,,DJI P3,FC300X,WGS84,64.156384267,-145.852912973,18.9,81.2,65.5,-70.8,90,0,259.7215505883,,64.156384267,-145.852912973,100,64.1565573585,-145.8530394327,64.1562829014,-145.8532584055,64.1564856326,-145.8525675405,64.1562111755,-145.8527865133,,,,,,,,,,,,,,,,,,,,,,,,,,,,,,,,,,,,,,,,,,,,,,,,,,,,,,,,,,,,
,1447400967,Delta,N112AQ,289.2,-20.1,-3.6,,,DJI P3,FC300X,WGS84,64.1563854677,-145.85291842,18.9,81.2,65.5,-70.9,90,0,260.2646046319,,64.1563854677,-145.85291842,100,64.1565584626,-145.8530455716,64.1562838392,-145.8532634466,64.1564870962,-145.8525733934,64.1562124728,-145.8527912684,,,,,,,,,,,,,,,,,,,,,,,,,,,,,,,,,,,,,,,,,,,,,,,,,,,,,,,,,,,,
,1447400967,Delta,N112AQ,289.4,-19.9,-3.9,,,DJI P3,FC300X,WGS84,64.1563873295,-145.852924825,18.9,81.2,65.5,-70.9,90,0,260.2646046319,,64.1563873295,-145.852924825,100,64.1565603244,-145.8530519766,64.156285701,-145.8532698516,64.156488958,-145.8525797984,64.1562143346,-145.8527976734,,,,,,,,,,,,,,,,,,,,,,,,,,,,,,,,,,,,,,,,,,,,,,,,,,,,,,,,,,,,
,1447400967,Delta,N112AQ,289.8,-19.8,-3.9,,,DJI P3,FC300X,WGS84,64.1563891404,-145.852930309,18.9,81.2,65.5,-70.9,90,0,260.2646046319,,64.1563891404,-145.852930309,100,64.1565621353,-145.8530574606,64.1562875119,-145.8532753357,64.1564907689,-145.8525852823,64.1562161455,-145.8528031574,,,,,,,,,,,,,,,,,,,,,,,,,,,,,,,,,,,,,,,,,,,,,,,,,,,,,,,,,,,,
,1447400967,Delta,N112AQ,290.2,-19.6,-4.1,,,DJI P3,FC300X,WGS84,64.1563928428,-145.852944702,18.9,81.2,65.5,-70.9,90,0,260.9122170604,,64.1563928428,-145.852944702,100,64.1565658377,-145.8530718537,64.1562912143,-145.8532897287,64.1564944713,-145.8525996753,64.1562198479,-145.8528175504,,,,,,,,,,,,,,,,,,,,,,,,,,,,,,,,,,,,,,,,,,,,,,,,,,,,,,,,,,,,
,1447400967,Delta,N112AQ,290.3,-19.5,-4.1,,,DJI P3,FC300X,WGS84,64.1563954653,-145.852952437,18.9,81.2,65.5,-70.9,90,0,260.9122170604,,64.1563954653,-145.852952437,100,64.1565684602,-145.8530795887,64.1562938368,-145.8532974637,64.1564970938,-145.8526074103,64.1562224704,-145.8528252853,,,,,,,,,,,,,,,,,,,,,,,,,,,,,,,,,,,,,,,,,,,,,,,,,,,,,,,,,,,,
,1447400968,Delta,N112AQ,290.4,-19.4,-4.2,,,DJI P3,FC300X,WGS84,64.156397238,-145.852960338,18.9,81.2,65.5,-70.9,90,0,262.0698259551,,64.156397238,-145.852960338,100,64.1565702329,-145.8530874897,64.1562956095,-145.8533053648,64.1564988665,-145.8526153112,64.1562242431,-145.8528331863,,,,,,,,,,,,,,,,,,,,,,,,,,,,,,,,,,,,,,,,,,,,,,,,,,,,,,,,,,,,
,1447400968,Delta,N112AQ,290.4,-18.9,-4.3,,,DJI P3,FC300X,WGS84,64.1563995589,-145.852969368,18.9,81.2,65.5,-70.9,90,0,262.0698259551,,64.1563995589,-145.852969368,100,64.1565725538,-145.8530965197,64.1562979304,-145.8533143948,64.1565011874,-145.8526243412,64.156226564,-145.8528422163,,,,,,,,,,,,,,,,,,,,,,,,,,,,,,,,,,,,,,,,,,,,,,,,,,,,,,,,,,,,
,1447400968,Delta,N112AQ,290.4,-18.4,-4.4,,,DJI P3,FC300X,WGS84,64.1564019265,-145.852977736,18.9,81.2,65.5,-70.9,90,0,263.3217306721,,64.1564019265,-145.852977736,100,64.1565749214,-145.8531048877,64.156300298,-145.8533227628,64.156503555,-145.8526327092,64.1562289316,-145.8528505843,,,,,,,,,,,,,,,,,,,,,,,,,,,,,,,,,,,,,,,,,,,,,,,,,,,,,,,,,,,,
,1447400968,Delta,N112AQ,290.4,-17.9,-4.4,,,DJI P3,FC300X,WGS84,64.1564065155,-145.852996608,18.9,81.2,65.5,-70.9,90,0,263.3217306721,,64.1564065155,-145.852996608,100,64.1565795104,-145.8531237597,64.156304887,-145.8533416349,64.156508144,-145.8526515811,64.1562335206,-145.8528694563,,,,,,,,,,,,,,,,,,,,,,,,,,,,,,,,,,,,,,,,,,,,,,,,,,,,,,,,,,,,
,1447400968,Delta,N112AQ,290.5,-17.3,-4.7,,,DJI P3,FC300X,WGS84,64.1564093747,-145.853006871,18.8,81.2,65.5,-70.9,89.9,0,263.3145720315,,64.1564093747,-145.853006871,100,64.1565814543,-145.85313335,64.1563082839,-145.8533500724,64.1565104655,-145.8526636696,64.1562372951,-145.852880392,,,,,,,,,,,,,,,,,,,,,,,,,,,,,,,,,,,,,,,,,,,,,,,,,,,,,,,,,,,,
,1447400968,Delta,N112AQ,290.4,-16.8,-4.8,,,DJI P3,FC300X,WGS84,64.1564115623,-145.853016741,18.8,81.2,65.5,-70.9,89.9,0,264.7591688537,,64.1564115623,-145.853016741,100,64.1565836419,-145.85314322,64.1563104715,-145.8533599424,64.1565126531,-145.8526735396,64.1562394827,-145.852890262,,,,,,,,,,,,,,,,,,,,,,,,,,,,,,,,,,,,,,,,,,,,,,,,,,,,,,,,,,,,
,1447400968,Delta,N112AQ,290.4,-16.6,-4.9,,,DJI P3,FC300X,WGS84,64.1564141093,-145.853027818,18.8,81.2,65.5,-70.9,89.9,0,264.7591688537,,64.1564141093,-145.853027818,100,64.1565861889,-145.853154297,64.1563130185,-145.8533710194,64.1565152001,-145.8526846166,64.1562420297,-145.852901339,,,,,,,,,,,,,,,,,,,,,,,,,,,,,,,,,,,,,,,,,,,,,,,,,,,,,,,,,,,,
,1447400968,Delta,N112AQ,290.5,-16.7,-4.8,,,DJI P3,FC300X,WGS84,64.1564167183,-145.853038305,18.7,81.2,65.5,-70.9,90,0,265.7334340084,,64.1564167183,-145.853038305,100,64.1565878826,-145.8531641112,64.1563161652,-145.8533796809,64.1565172714,-145.8526969291,64.156245554,-145.8529124988,,,,,,,,,,,,,,,,,,,,,,,,,,,,,,,,,,,,,,,,,,,,,,,,,,,,,,,,,,,,
,1447400968,Delta,N112AQ,290.5,-16.5,-4.7,,,DJI P3,FC300X,WGS84,64.1564192942,-145.853049821,18.7,81.2,65.5,-70.9,90,0,265.7334340084,,64.1564192942,-145.853049821,100,64.1565904585,-145.8531756273,64.1563187411,-145.853391197,64.1565198473,-145.852708445,64.1562481299,-145.8529240148,,,,,,,,,,,,,,,,,,,,,,,,,,,,,,,,,,,,,,,,,,,,,,,,,,,,,,,,,,,,
,1447400969,Delta,N112AQ,290.6,-15.9,-5,,,DJI P3,FC300X,WGS84,64.156421637,-145.853060818,18.7,81.2,65.5,-70.9,90,0,266.7857302214,,64.156421637,-145.853060818,100,64.1565928013,-145.8531866243,64.1563210839,-145.853402194,64.1565221901,-145.852719442,64.1562504727,-145.8529350117,,,,,,,,,,,,,,,,,,,,,,,,,,,,,,,,,,,,,,,,,,,,,,,,,,,,,,,,,,,,
,1447400969,Delta,N112AQ,289.9,-14.3,-5,,,DJI P3,FC300X,WGS84,64.1564268079,-145.853084436,18.7,81.2,65.5,-70.9,90,0,266.7857302214,,64.1564268079,-145.853084436,100,64.1565979722,-145.8532102423,64.1563262548,-145.8534258121,64.156527361,-145.8527430599,64.1562556436,-145.8529586297,,,,,,,,,,,,,,,,,,,,,,,,,,,,,,,,,,,,,,,,,,,,,,,,,,,,,,,,,,,,
,1447400969,Delta,N112AQ,289.5,-14.3,-4.9,,,DJI P3,FC300X,WGS84,64.1564293934,-145.853096775,18.7,81.2,65.5,-70.9,90,0,268.383316128,,64.1564293934,-145.853096775,100,64.1566005577,-145.8532225813,64.1563288403,-145.8534381511,64.1565299465,-145.8527553989,64.1562582291,-145.8529709687,,,,,,,,,,,,,,,,,,,,,,,,,,,,,,,,,,,,,,,,,,,,,,,,,,,,,,,,,,,,
,1447400969,Delta,N112AQ,289.4,-14,-4.9,,,DJI P3,FC300X,WGS84,64.1564319703,-145.853108847,18.7,81.2,65.5,-70.9,89.9,0,269.4992914611,,64.1564319703,-145.853108847,100,64.1566031346,-145.8532346533,64.1563314172,-145.8534502231,64.1565325234,-145.8527674709,64.156260806,-145.8529830407,,,,,,,,,,,,,,,,,,,,,,,,,,,,,,,,,,,,,,,,,,,,,,,,,,,,,,,,,,,,
,1447400969,Delta,N112AQ,289.1,-13.6,-4.8,,,DJI P3,FC300X,WGS84,64.1564343823,-145.853121673,18.6,81.2,65.5,-70.9,90,0,269.4923711314,,64.1564343823,-145.853121673,100,64.1566046313,-145.8532468066,64.1563343669,-145.8534612236,64.1565343977,-145.8527821224,64.1562641333,-145.8529965394,,,,,,,,,,,,,,,,,,,,,,,,,,,,,,,,,,,,,,,,,,,,,,,,,,,,,,,,,,,,
,1447400969,Delta,N112AQ,289.2,-12.9,-4.9,,,DJI P3,FC300X,WGS84,64.1564368148,-145.853133871,18.6,81.2,65.5,-71,90,0,269.4923711314,,64.1564368148,-145.853133871,100,64.1566069682,-145.8532596852,64.1563365409,-145.8534730212,64.1565370887,-145.8527947208,64.1562666614,-145.8530080568,,,,,,,,,,,,,,,,,,,,,,,,,,,,,,,,,,,,,,,,,,,,,,,,,,,,,,,,,,,,
,1447400969,Delta,N112AQ,288.9,-11.1,-4.9,,,DJI P3,FC300X,WGS84,64.1564392789,-145.853146853,18.7,81.2,65.5,-71,89.9,0,270.6032026361,,64.1564392789,-145.853146853,100,64.1566103471,-145.8532733436,64.1563384659,-145.8534878266,64.1565400919,-145.8528058794,64.1562682107,-145.8530203624,,,,,,,,,,,,,,,,,,,,,,,,,,,,,,,,,,,,,,,,,,,,,,,,,,,,,,,,,,,,
,1447400970,Delta,N112AQ,289,-9.1,-4.9,,,DJI P3,FC300X,WGS84,64.1564417645,-145.85315957,18.7,81.2,65.5,-71,89.9,0,270.6032026361,,64.1564417645,-145.85315957,100,64.1566128327,-145.8532860606,64.1563409515,-145.8535005436,64.1565425775,-145.8528185964,64.1562706963,-145.8530330794,,,,,,,,,,,,,,,,,,,,,,,,,,,,,,,,,,,,,,,,,,,,,,,,,,,,,,,,,,,,
,1447400970,Delta,N112AQ,288.7,-3.4,-5,,,DJI P3,FC300X,WGS84,64.1564465099,-145.85318492,18.7,81.2,65.5,-71,90,0,271.7366063969,,64.1564465099,-145.85318492,100,64.1566175781,-145.8533114106,64.1563456969,-145.8535258937,64.1565473229,-145.8528439463,64.1562754417,-145.8530584294,,,,,,,,,,,,,,,,,,,,,,,,,,,,,,,,,,,,,,,,,,,,,,,,,,,,,,,,,,,,
,1447400970,Delta,N112AQ,288.6,0.6,-4.8,,,DJI P3,FC300X,WGS84,64.1564488545,-145.853197884,18.7,81.2,65.5,-71,89.9,0,271.7366063969,,64.1564488545,-145.853197884,100,64.1566199227,-145.8533243746,64.1563480415,-145.8535388577,64.1565496675,-145.8528569103,64.1562777863,-145.8530713934,,,,,,,,,,,,,,,,,,,,,,,,,,,,,,,,,,,,,,,,,,,,,,,,,,,,,,,,,,,,
,1447400970,Delta,N112AQ,288.4,6.6,-5,,,DJI P3,FC300X,WGS84,64.1564510532,-145.85320967,18.7,81.2,65.5,-71,89.9,0,273.4032329498,,64.1564510532,-145.85320967,100,64.1566221214,-145.8533361606,64.1563502402,-145.8535506438,64.1565518662,-145.8528686963,64.156279985,-145.8530831794,,,,,,,,,,,,,,,,,,,,,,,,,,,,,,,,,,,,,,,,,,,,,,,,,,,,,,,,,,,,
,1447400970,Delta,N112AQ,288.2,14.5,-5.2,,,DJI P3,FC300X,WGS84,64.1564530653,-145.85322143,18.7,81.2,65.5,-71,89.9,0,274.4161838578,,64.1564530653,-145.85322143,100,64.1566241335,-145.8533479206,64.1563522523,-145.8535624038,64.1565538783,-145.8528804562,64.1562819971,-145.8530949394,,,,,,,,,,,,,,,,,,,,,,,,,,,,,,,,,,,,,,,,,,,,,,,,,,,,,,,,,,,,
,1447400970,Delta,N112AQ,288,20.2,-5.1,,,DJI P3,FC300X,WGS84,64.156455034,-145.853232635,18.7,81.2,65.5,-71,89.9,0,274.4161838578,,64.156455034,-145.853232635,100,64.1566261022,-145.8533591257,64.156354221,-145.8535736088,64.156555847,-145.8528916612,64.1562839658,-145.8531061443,,,,,,,,,,,,,,,,,,,,,,,,,,,,,,,,,,,,,,,,,,,,,,,,,,,,,,,,,,,,
,1447400970,Delta,N112AQ,288.3,22.4,-4.4,,,DJI P3,FC300X,WGS84,64.1564567571,-145.853242802,18.7,81.2,65.5,-71,89.9,0,274.4161838578,,64.1564567571,-145.853242802,100,64.1566278253,-145.8533692927,64.1563559441,-145.8535837758,64.1565575701,-145.8529018282,64.1562856889,-145.8531163113,,,,,,,,,,,,,,,,,,,,,,,,,,,,,,,,,,,,,,,,,,,,,,,,,,,,,,,,,,,,
,1447400970,Delta,N112AQ,288.6,25,-3,,,DJI P3,FC300X,WGS84,64.1564597566,-145.853260844,18.7,81.2,65.5,-71,89.9,0,275.3250534625,,64.1564597566,-145.853260844,100,64.1566308248,-145.8533873347,64.1563589436,-145.8536018179,64.1565605696,-145.8529198701,64.1562886884,-145.8531343533,,,,,,,,,,,,,,,,,,,,,,,,,,,,,,,,,,,,,,,,,,,,,,,,,,,,,,,,,,,,
,1447400970,Delta,N112AQ,288.6,25.6,-2.5,,,DJI P3,FC300X,WGS84,64.1564610603,-145.853268096,18.7,81.2,65.5,-70.9,89.9,0,275.3250534625,,64.1564610603,-145.853268096,100,64.1566322246,-145.8533939024,64.1563605072,-145.8536094725,64.1565616134,-145.8529267195,64.156289896,-145.8531422896,,,,,,,,,,,,,,,,,,,,,,,,,,,,,,,,,,,,,,,,,,,,,,,,,,,,,,,,,,,,
,1447400971,Delta,N112AQ,288.4,26.3,-2.2,,,DJI P3,FC300X,WGS84,64.1564619376,-145.853274111,18.8,81.2,65.5,-70.9,89.9,0,276.4033413118,,64.1564619376,-145.853274111,100,64.1566340172,-145.8534005902,64.1563608468,-145.853617313,64.1565630284,-145.852930909,64.156289858,-145.8531476318,,,,,,,,,,,,,,,,,,,,,,,,,,,,,,,,,,,,,,,,,,,,,,,,,,,,,,,,,,,,
,1447400971,Delta,N112AQ,287.7,26.7,-2.8,,,DJI P3,FC300X,WGS84,64.1564630418,-145.853280969,18.8,81.2,65.5,-70.9,89.9,0,276.4033413118,,64.1564630418,-145.853280969,100,64.1566351214,-145.8534074482,64.156361951,-145.853624171,64.1565641326,-145.852937767,64.1562909622,-145.8531544898,,,,,,,,,,,,,,,,,,,,,,,,,,,,,,,,,,,,,,,,,,,,,,,,,,,,,,,,,,,,
,1447400971,Delta,N112AQ,286.9,26,-4.2,,,DJI P3,FC300X,WGS84,64.1564632432,-145.853284827,18.8,81.2,65.5,-70.9,90,0,276.930105549,,64.1564632432,-145.853284827,100,64.1566353228,-145.8534113062,64.1563621524,-145.853628029,64.156564334,-145.852941625,64.1562911636,-145.8531583478,,,,,,,,,,,,,,,,,,,,,,,,,,,,,,,,,,,,,,,,,,,,,,,,,,,,,,,,,,,,
,1447400971,Delta,N112AQ,286.8,17,-5,,,DJI P3,FC300X,WGS84,64.1564638724,-145.853291502,18.9,81.2,65.5,-70.9,89.9,0,277.2948719473,,64.1564638724,-145.853291502,100,64.1566368673,-145.853418654,64.1563622439,-145.8536365296,64.1565655009,-145.8529464744,64.1562908775,-145.85316435,,,,,,,,,,,,,,,,,,,,,,,,,,,,,,,,,,,,,,,,,,,,,,,,,,,,,,,,,,,,
,1447400971,Delta,N112AQ,287.3,12.4,-4.7,,,DJI P3,FC300X,WGS84,64.1564642838,-145.853293766,18.9,81.2,65.5,-70.9,89.9,0,277.2948719473,,64.1564642838,-145.853293766,100,64.1566372787,-145.853420918,64.1563626553,-145.8536387936,64.1565659123,-145.8529487384,64.1562912889,-145.853166614,,,,,,,,,,,,,,,,,,,,,,,,,,,,,,,,,,,,,,,,,,,,,,,,,,,,,,,,,,,,
,1447400971,Delta,N112AQ,288.5,8.6,-4.5,,,DJI P3,FC300X,WGS84,64.1564638665,-145.853294011,19,81.2,65.5,-70.9,90,0,277.3017057435,,64.1564638665,-145.853294011,100,64.1566377767,-145.8534218357,64.1563617002,-145.8536408641,64.1565660328,-145.8529471579,64.1562899563,-145.8531661863,,,,,,,,,,,,,,,,,,,,,,,,,,,,,,,,,,,,,,,,,,,,,,,,,,,,,,,,,,,,
,1447400971,Delta,N112AQ,289.6,5.6,-4.2,,,DJI P3,FC300X,WGS84,64.1564638076,-145.853296551,19,81.2,65.5,-70.9,90,0,277.3681082004,,64.1564638076,-145.853296551,100,64.1566377178,-145.8534243757,64.1563616413,-145.8536434041,64.1565659739,-145.8529496979,64.1562898974,-145.8531687263,,,,,,,,,,,,,,,,,,,,,,,,,,,,,,,,,,,,,,,,,,,,,,,,,,,,,,,,,,,,
,1447400971,Delta,N112AQ,289.8,3.4,-3.8,,,DJI P3,FC300X,WGS84,64.1564631759,-145.853296161,19.1,81.2,65.5,-70.9,90,0,277.3749762445,,64.1564631759,-145.853296161,100,64.1566380015,-145.8534246585,64.1563604719,-145.8536448397,64.1565658799,-145.8529474823,64.1562883503,-145.8531676635,,,,,,,,,,,,,,,,,,,,,,,,,,,,,,,,,,,,,,,,,,,,,,,,,,,,,,,,,,,,
,1447400971,Delta,N112AQ,289.7,1.4,-3.1,,,DJI P3,FC300X,WGS84,64.1564632351,-145.853297249,19.1,81.2,65.5,-70.9,90,0,277.3682783143,,64.1564632351,-145.853297249,100,64.1566380607,-145.8534257465,64.1563605311,-145.8536459277,64.1565659391,-145.8529485703,64.1562884095,-145.8531687515,,,,,,,,,,,,,,,,,,,,,,,,,,,,,,,,,,,,,,,,,,,,,,,,,,,,,,,,,,,,
,1447400972,Delta,N112AQ,289.8,0.2,-2.6,,,DJI P3,FC300X,WGS84,64.1564621026,-145.853296785,19.1,81.2,65.5,-70.9,90,0,277.3682783143,,64.1564621026,-145.853296785,100,64.1566369282,-145.8534252825,64.1563593986,-145.8536454637,64.1565648066,-145.8529481063,64.156287277,-145.8531682875,,,,,,,,,,,,,,,,,,,,,,,,,,,,,,,,,,,,,,,,,,,,,,,,,,,,,,,,,,,,
,1447400972,Delta,N112AQ,289.7,-1.8,-2,,,DJI P3,FC300X,WGS84,64.1564615808,-145.853296906,19.2,81.2,65.5,-70.9,90,0,277.2921606456,,64.1564615808,-145.853296906,100,64.1566373217,-145.8534260763,64.1563583391,-145.8536474102,64.1565648225,-145.8529464018,64.1562858399,-145.8531677358,,,,,,,,,,,,,,,,,,,,,,,,,,,,,,,,,,,,,,,,,,,,,,,,,,,,,,,,,,,,
,1447400972,Delta,N112AQ,289.6,-3,-1.8,,,DJI P3,FC300X,WGS84,64.1564607404,-145.85329628,19.2,81.2,65.5,-70.9,90,0,277.1928208677,,64.1564607404,-145.85329628,100,64.1566364813,-145.8534254502,64.1563574987,-145.8536467842,64.1565639821,-145.8529457758,64.1562849995,-145.8531671098,,,,,,,,,,,,,,,,,,,,,,,,,,,,,,,,,,,,,,,,,,,,,,,,,,,,,,,,,,,,
,1447400972,Delta,N112AQ,289.6,-3.7,-1.6,,,DJI P3,FC300X,WGS84,64.1564607128,-145.853296619,19.2,81.2,65.5,-70.9,90,0,277.1587232814,,64.1564607128,-145.853296619,100,64.1566364537,-145.8534257892,64.1563574711,-145.8536471232,64.1565639545,-145.8529461148,64.1562849719,-145.8531674488,,,,,,,,,,,,,,,,,,,,,,,,,,,,,,,,,,,,,,,,,,,,,,,,,,,,,,,,,,,,
,1447400972,Delta,N112AQ,289.7,-3.8,-1.7,,,DJI P3,FC300X,WGS84,64.1564602888,-145.853295103,19.2,81.2,65.5,-70.8,90,0,277.1587232814,,64.1564602888,-145.853295103,100,64.1566361278,-145.8534235703,64.1563573143,-145.8536460195,64.1565632633,-145.8529441865,64.1562844498,-145.8531666357,,,,,,,,,,,,,,,,,,,,,,,,,,,,,,,,,,,,,,,,,,,,,,,,,,,,,,,,,,,,
,1447400972,Delta,N112AQ,289.8,-4.4,-2.2,,,DJI P3,FC300X,WGS84,64.1564603252,-145.853295309,19.2,81.2,65.5,-70.4,90,0,277.1587232814,,64.1564603252,-145.853295309,100,64.1566365514,-145.8534209607,64.1563584225,-145.853647864,64.1565622279,-145.852942754,64.156284099,-145.8531696573,,,,,,,,,,,,,,,,,,,,,,,,,,,,,,,,,,,,,,,,,,,,,,,,,,,,,,,,,,,,
,1447400972,Delta,N112AQ,291.4,-5.1,-3.1,,,DJI P3,FC300X,WGS84,64.1564605509,-145.853295191,19.3,81.2,65.5,-69.8,90,0,277.0946744729,,64.1564605509,-145.853295191,100,64.1566382625,-145.8534172402,64.1563597428,-145.8536520203,64.156561359,-145.8529383617,64.1562828393,-145.8531731418,,,,,,,,,,,,,,,,,,,,,,,,,,,,,,,,,,,,,,,,,,,,,,,,,,,,,,,,,,,,
,1447400972,Delta,N112AQ,291.4,-5.1,-3.1,,,DJI P3,FC300X,WGS84,64.1564605509,-145.853295191,19.3,81.2,65.5,-69.2,89.9,0,277.0946744729,,64.1564605509,-145.853295191,100,64.1566388106,-145.8534129699,64.1563613793,-145.8536544193,64.1565597225,-145.8529359627,64.1562822912,-145.8531774121,,,,,,,,,,,,,,,,,,,,,,,,,,,,,,,,,,,,,,,,,,,,,,,,,,,,,,,,,,,,
,1447400972,Delta,N112AQ,293.8,-4.9,-3.9,,,DJI P3,FC300X,WGS84,64.1564605936,-145.853294602,19.3,81.2,65.5,-68.6,90,0,277.1006718355,,64.1564605936,-145.853294602,100,64.1566393819,-145.8534080977,64.1563630694,-145.8536561899,64.1565581178,-145.8529330141,64.1562818053,-145.8531811063,,,,,,,,,,,,,,,,,,,,,,,,,,,,,,,,,,,,,,,,,,,,,,,,,,,,,,,,,,,,
,1447400973,Delta,N112AQ,294,-4.7,-4.2,,,DJI P3,FC300X,WGS84,64.1564608711,-145.853294555,19.3,81.2,65.5,-68.5,90,0,277.1006718355,,64.1564608711,-145.853294555,100,64.1566397456,-145.8534073356,64.1563636225,-145.8536565324,64.1565581197,-145.8529325776,64.1562819966,-145.8531817744,,,,,,,,,,,,,,,,,,,,,,,,,,,,,,,,,,,,,,,,,,,,,,,,,,,,,,,,,,,,
,1447400973,Delta,N112AQ,294.4,-4.7,-4.6,,,DJI P3,FC300X,WGS84,64.1564610061,-145.853294298,19.3,81.2,65.5,-68.4,90,0,277.1006718355,,64.1564610061,-145.853294298,100,64.1566399662,-145.8534063631,64.1563640334,-145.8536566637,64.1565579788,-145.8529319323,64.156282046,-145.8531822329,,,,,,,,,,,,,,,,,,,,,,,,,,,,,,,,,,,,,,,,,,,,,,,,,,,,,,,,,,,,
,1447400973,Delta,N112AQ,294.6,-4.3,-4.7,,,DJI P3,FC300X,WGS84,64.156461433,-145.853294608,19.3,81.2,65.5,-68.2,89.9,0,277.1308717617,,64.156461433,-145.853294608,100,64.1566405627,-145.8534052412,64.1563650129,-145.853657747,64.1565578531,-145.852931469,64.1562823033,-145.8531839748,,,,,,,,,,,,,,,,,,,,,,,,,,,,,,,,,,,,,,,,,,,,,,,,,,,,,,,,,,,,
,1447400973,Delta,N112AQ,295.2,-3.7,-5.3,,,DJI P3,FC300X,WGS84,64.1564616455,-145.853294944,19.3,81.2,65.5,-66.4,90,0,277.1308717617,,64.1564616455,-145.853294944,100,64.1566422036,-145.8533926316,64.1563702516,-145.8536648427,64.1565530394,-145.8529250453,64.1562810874,-145.8531972564,,,,,,,,,,,,,,,,,,,,,,,,,,,,,,,,,,,,,,,,,,,,,,,,,,,,,,,,,,,,
,1447400973,Delta,N112AQ,297,-3,-5.9,,,DJI P3,FC300X,WGS84,64.1564621901,-145.853294902,19.3,81.2,65.5,-64.8,89.9,0,277.2074676157,,64.1564621901,-145.853294902,100,64.1566438684,-145.853381001,64.1563753399,-145.853670503,64.1565490403,-145.852919301,64.1562805118,-145.853208803,,,,,,,,,,,,,,,,,,,,,,,,,,,,,,,,,,,,,,,,,,,,,,,,,,,,,,,,,,,,
,1447400973,Delta,N112AQ,302.8,-1.6,-6.7,,,DJI P3,FC300X,WGS84,64.1564627324,-145.853295768,19.2,81.2,65.5,-62.7,89.9,0,277.3234878746,,64.1564627324,-145.853295768,100,64.1566447179,-145.8533661898,64.1563823664,-145.8536764256,64.1565430984,-145.8529151104,64.1562807469,-145.8532253462,,,,,,,,,,,,,,,,,,,,,,,,,,,,,,,,,,,,,,,,,,,,,,,,,,,,,,,,,,,,
,1447400973,Delta,N112AQ,306.2,-1.1,-6.8,,,DJI P3,FC300X,WGS84,64.1564631011,-145.853295984,19.2,81.2,65.5,-60.1,89.9,0,277.3234878746,,64.1564631011,-145.853295984,100,64.1566462936,-145.8533474194,64.1563903548,-145.8536846023,64.1565358474,-145.8529073657,64.1562799086,-145.8532445486,,,,,,,,,,,,,,,,,,,,,,,,,,,,,,,,,,,,,,,,,,,,,,,,,,,,,,,,,,,,
,1447400973,Delta,N112AQ,309.9,-0.4,-6.7,,,DJI P3,FC300X,WGS84,64.1564635349,-145.853296423,19.2,81.2,65.5,-56.9,89.9,0,277.3234878746,,64.1564635349,-145.853296423,100,64.1566476949,-145.8533243493,64.1564003705,-145.853693739,64.1565266993,-145.852899107,64.1562793749,-145.8532684967,,,,,,,,,,,,,,,,,,,,,,,,,,,,,,,,,,,,,,,,,,,,,,,,,,,,,,,,,,,,
,1447400973,Delta,N112AQ,313.9,0.1,-6.7,,,DJI P3,FC300X,WGS84,64.156463695,-145.853296875,19.2,81.2,65.5,-53.5,90,0,277.4154907774,,64.156463695,-145.853296875,100,64.1566482538,-145.8532997292,64.1564109266,-145.8537020742,64.1565164634,-145.8528916758,64.1562791362,-145.8532940208,,,,,,,,,,,,,,,,,,,,,,,,,,,,,,,,,,,,,,,,,,,,,,,,,,,,,,,,,,,,
,1447400973,Delta,N112AQ,317.6,0.5,-6.5,,,DJI P3,FC300X,WGS84,64.1564641683,-145.853297416,19.2,81.2,65.5,-46.2,89.9,0,277.4154907774,,64.1564641683,-145.853297416,100,64.1566473894,-145.853246519,64.1564343001,-145.8537146926,64.1564940365,-145.8528801394,64.1562809472,-145.853348313,,,,,,,,,,,,,,,,,,,,,,,,,,,,,,,,,,,,,,,,,,,,,,,,,,,,,,,,,,,,
,1447400974,Delta,N112AQ,321.2,1.5,-6.1,,,DJI P3,FC300X,WGS84,64.1564642898,-145.853297924,19.2,81.2,65.5,-42.6,90,0,277.5256691655,,64.1564642898,-145.853297924,100,64.1566457545,-145.8532207694,64.1564459166,-145.853718674,64.156482663,-145.852877174,64.1562828251,-145.8533750786,,,,,,,,,,,,,,,,,,,,,,,,,,,,,,,,,,,,,,,,,,,,,,,,,,,,,,,,,,,,
,1447400974,Delta,N112AQ,324.7,1.7,-5.4,,,DJI P3,FC300X,WGS84,64.156464591,-145.853298631,19.2,81.2,65.5,-39.1,89.9,0,277.5256691655,,64.156464591,-145.853298631,100,64.1566436613,-145.8531962393,64.1564574634,-145.8537211661,64.1564717186,-145.852876096,64.1562855207,-145.8534010227,,,,,,,,,,,,,,,,,,,,,,,,,,,,,,,,,,,,,,,,,,,,,,,,,,,,,,,,,,,,
,1447400974,Delta,N112AQ,331,2.5,-4.6,,,DJI P3,FC300X,WGS84,64.1564650851,-145.853299946,19.2,81.2,65.5,-36,90,0,277.5256691655,,64.1564650851,-145.853299946,100,64.1566414765,-145.8531755174,64.1564679414,-145.8537227459,64.1564622288,-145.8528771461,64.1562886937,-145.8534243746,,,,,,,,,,,,,,,,,,,,,,,,,,,,,,,,,,,,,,,,,,,,,,,,,,,,,,,,,,,,
,1447400974,Delta,N112AQ,333.7,3,-4.1,,,DJI P3,FC300X,WGS84,64.1564651771,-145.853300435,19.2,81.2,65.5,-33,89.9,0,277.6535664756,,64.1564651771,-145.853300435,100,64.1566384844,-145.8531550265,64.1564776876,-145.8537223129,64.1564526666,-145.8528785571,64.1562918698,-145.8534458435,,,,,,,,,,,,,,,,,,,,,,,,,,,,,,,,,,,,,,,,,,,,,,,,,,,,,,,,,,,,
,1447400974,Delta,N112AQ,336.4,3.2,-3.8,,,DJI P3,FC300X,WGS84,64.1564655839,-145.853301166,19.2,81.2,65.5,-30.2,90,0,277.6535664756,,64.1564655839,-145.853301166,100,64.156635584,-145.8531365346,64.1564870746,-145.8537211401,64.1564440932,-145.8528811919,64.1562955838,-145.8534657974,,,,,,,,,,,,,,,,,,,,,,,,,,,,,,,,,,,,,,,,,,,,,,,,,,,,,,,,,,,,
,1447400974,Delta,N112AQ,339,3.7,-3.4,,,DJI P3,FC300X,WGS84,64.1564656538,-145.853301603,19.2,81.2,65.5,-24.7,89.9,0,277.732448295,,64.1564656538,-145.853301603,100,64.156627984,-145.853100399,64.1565046148,-145.8537149245,64.1564266928,-145.8528882815,64.1563033236,-145.853502807,,,,,,,,,,,,,,,,,,,,,,,,,,,,,,,,,,,,,,,,,,,,,,,,,,,,,,,,,,,,
,1447400975,Delta,N112AQ,341.8,3.7,-2.9,,,DJI P3,FC300X,WGS84,64.1564657835,-145.853302022,19.2,81.2,65.5,-22,89.9,0,277.732448295,,64.1564657835,-145.853302022,100,64.1566237966,-145.8530835219,64.1565131994,-145.8537106798,64.1564183676,-145.8528933642,64.1563077704,-145.8535205221,,,,,,,,,,,,,,,,,,,,,,,,,,,,,,,,,,,,,,,,,,,,,,,,,,,,,,,,,,,,
,1447400975,Delta,N112AQ,344.5,4,-2.5,,,DJI P3,FC300X,WGS84,64.1564660056,-145.853302545,19.3,81.2,65.5,-19.3,89.9,0,277.8153975771,,64.1564660056,-145.853302545,100,64.1566201495,-145.8530660082,64.1565220616,-145.8537077311,64.1564099496,-145.8528973589,64.1563118617,-145.8535390818,,,,,,,,,,,,,,,,,,,,,,,,,,,,,,,,,,,,,,,,,,,,,,,,,,,,,,,,,,,,
,1447400975,Delta,N112AQ,350.1,3.8,-2,,,DJI P3,FC300X,WGS84,64.1564660879,-145.85330299,19.3,81.2,65.5,-16.6,89.9,0,277.8153975771,,64.1564660879,-145.85330299,100,64.1566151973,-145.8530500798,64.1565304126,-145.8537016765,64.1564017632,-145.8529043035,64.1563169785,-145.8535559002,,,,,,,,,,,,,,,,,,,,,,,,,,,,,,,,,,,,,,,,,,,,,,,,,,,,,,,,,,,,
,1447400975,Delta,N112AQ,352.9,3.6,-1.8,,,DJI P3,FC300X,WGS84,64.1564663253,-145.853303257,19.3,81.2,65.5,-13.8,90,0,277.8153975771,,64.1564663253,-145.853303257,100,64.1566098642,-145.8530339606,64.1565390739,-145.8536942683,64.1563935767,-145.8529122457,64.1563227864,-145.8535725534,,,,,,,,,,,,,,,,,,,,,,,,,,,,,,,,,,,,,,,,,,,,,,,,,,,,,,,,,,,,
,1447400975,Delta,N112AQ,355.7,3.7,-1.6,,,DJI P3,FC300X,WGS84,64.156466331,-145.853303432,19.3,81.2,65.5,-11.1,89.9,0,277.8640773098,,64.156466331,-145.853303432,100,64.1566041737,-145.853018943,64.1565470383,-145.8536861579,64.1563856237,-145.8529207061,64.1563284883,-145.853587921,,,,,,,,,,,,,,,,,,,,,,,,,,,,,,,,,,,,,,,,,,,,,,,,,,,,,,,,,,,,
,1447400975,Delta,N112AQ,358.3,3.6,-1.4,,,DJI P3,FC300X,WGS84,64.1564663598,-145.853303513,19.3,81.2,65.5,-5.8,89.9,0,277.8741542324,,64.1564663598,-145.853303513,100,64.1565921433,-145.8529910688,64.1565621525,-145.8536675226,64.1563705671,-145.8529395034,64.1563405763,-145.8536159572,,,,,,,,,,,,,,,,,,,,,,,,,,,,,,,,,,,,,,,,,,,,,,,,,,,,,,,,,,,,
,1447400975,Delta,N112AQ,0.8,3.7,-1.1,,,DJI P3,FC300X,WGS84,64.1564664799,-145.853303685,19.3,81.2,65.5,-3.3,90,0,277.8741542324,,64.1564664799,-145.853303685,100,64.1565861952,-145.8529789678,64.1565691117,-145.853657775,64.1563638481,-145.852949595,64.1563467646,-145.8536284022,,,,,,,,,,,,,,,,,,,,,,,,,,,,,,,,,,,,,,,,,,,,,,,,,,,,,,,,,,,,
,1447400975,Delta,N112AQ,5.4,3.9,-1,,,DJI P3,FC300X,WGS84,64.1564665184,-145.853303352,19.3,81.2,65.5,-1,90,0,277.8741542324,,64.1564665184,-145.853303352,100,64.1565804493,-145.8529678892,64.1565752699,-145.8536477202,64.1563577669,-145.8529589838,64.1563525875,-145.8536388149,,,,,,,,,,,,,,,,,,,,,,,,,,,,,,,,,,,,,,,,,,,,,,,,,,,,,,,,,,,,
,1447400975,Delta,N112AQ,7.4,4,-1.1,,,DJI P3,FC300X,WGS84,64.1564664387,-145.853303111,19.3,81.2,65.5,1.1,90,0,277.8707140746,,64.1564664387,-145.853303111,100,64.1565749277,-145.8529583085,64.156580625,-145.8536381178,64.1563522524,-145.8529681042,64.1563579497,-145.8536479135,,,,,,,,,,,,,,,,,,,,,,,,,,,,,,,,,,,,,,,,,,,,,,,,,,,,,,,,,,,,
,1447400976,Delta,N112AQ,9.5,3.9,-1.3,,,DJI P3,FC300X,WGS84,64.156466487,-145.85330296,19.3,81.2,65.5,3.2,89.9,0,277.8707140746,,64.156466487,-145.85330296,100,64.1565693884,-145.852949281,64.1565859547,-145.8536281554,64.1563470193,-145.8529777646,64.1563635856,-145.853656639,,,,,,,,,,,,,,,,,,,,,,,,,,,,,,,,,,,,,,,,,,,,,,,,,,,,,,,,,,,,
,1447400976,Delta,N112AQ,11.4,3.9,-1.4,,,DJI P3,FC300X,WGS84,64.1564665328,-145.853302574,19.3,81.2,65.5,5.3,90,0,277.8707140746,,64.1564665328,-145.853302574,100,64.1565637083,-145.8529404935,64.1565911214,-145.8536175212,64.1563419442,-145.8529876268,64.1563693573,-145.8536646545,,,,,,,,,,,,,,,,,,,,,,,,,,,,,,,,,,,,,,,,,,,,,,,,,,,,,,,,,,,,
,1447400976,Delta,N112AQ,13.2,4,-1.6,,,DJI P3,FC300X,WGS84,64.1564664779,-145.853302501,19.3,81.2,65.5,9.2,90,0,277.8651124018,,64.1564664779,-145.853302501,100,64.1565526794,-145.8529261162,64.1566001278,-145.8535973043,64.156332828,-145.8530076977,64.1563802764,-145.8536788858,,,,,,,,,,,,,,,,,,,,,,,,,,,,,,,,,,,,,,,,,,,,,,,,,,,,,,,,,,,,
,1447400976,Delta,N112AQ,15,4.1,-1.6,,,DJI P3,FC300X,WGS84,64.1564667075,-145.853301579,19.2,81.2,65.5,11,89.9,0,277.8478333188,,64.1564667075,-145.853301579,100,64.1565472865,-145.8529211578,64.1566036201,-145.8535851418,64.1563297949,-145.8530180162,64.1563861285,-145.8536820002,,,,,,,,,,,,,,,,,,,,,,,,,,,,,,,,,,,,,,,,,,,,,,,,,,,,,,,,,,,,
,1447400976,Delta,N112AQ,18.4,4.4,-1.9,,,DJI P3,FC300X,WGS84,64.1564665841,-145.85330073,19.2,81.2,65.5,12.8,89.9,0,277.8478333188,,64.1564665841,-145.85330073,100,64.1565419078,-145.8529146977,64.1566073168,-145.8535743,64.1563258514,-145.85302716,64.1563912604,-145.8536867623,,,,,,,,,,,,,,,,,,,,,,,,,,,,,,,,,,,,,,,,,,,,,,,,,,,,,,,,,,,,
,1447400976,Delta,N112AQ,20,4.4,-2,,,DJI P3,FC300X,WGS84,64.1564666501,-145.853300232,19.2,81.2,65.5,14.5,89.9,0,277.8478333188,,64.1564666501,-145.853300232,100,64.1565369421,-145.85290925,64.1566108632,-145.8535641163,64.156322437,-145.8530363477,64.1563963581,-145.853691214,,,,,,,,,,,,,,,,,,,,,,,,,,,,,,,,,,,,,,,,,,,,,,,,,,,,,,,,,,,,
,1447400976,Delta,N112AQ,21.4,4.4,-2.2,,,DJI P3,FC300X,WGS84,64.1564666064,-145.85329958,19.1,81.2,65.5,16.1,89.9,0,277.7995961563,,64.1564666064,-145.85329958,100,64.1565317649,-145.8529063127,64.1566132117,-145.8535528101,64.1563200011,-145.8530463499,64.1564014479,-145.8536928473,,,,,,,,,,,,,,,,,,,,,,,,,,,,,,,,,,,,,,,,,,,,,,,,,,,,,,,,,,,,
,1447400977,Delta,N112AQ,22.8,4.6,-2.3,,,DJI P3,FC300X,WGS84,64.1564665185,-145.853299292,19.1,81.2,65.5,19.1,89.9,0,277.7995961563,,64.1564665185,-145.853299292,100,64.1565226042,-145.8528987508,64.1566187075,-145.8535345961,64.1563143295,-145.8530639879,64.1564104328,-145.8536998332,,,,,,,,,,,,,,,,,,,,,,,,,,,,,,,,,,,,,,,,,,,,,,,,,,,,,,,,,,,,
,1447400977,Delta,N112AQ,24.3,4.6,-2.3,,,DJI P3,FC300X,WGS84,64.1564665716,-145.853298406,19.1,81.2,65.5,20.6,89.9,0,277.7623006006,,64.1564665716,-145.853298406,100,64.1565180617,-145.8528946384,64.1566213969,-145.8535245022,64.1563117463,-145.8530723098,64.1564150815,-145.8537021736,,,,,,,,,,,,,,,,,,,,,,,,,,,,,,,,,,,,,,,,,,,,,,,,,,,,,,,,,,,,
,1447400977,Delta,N112AQ,25.7,4.7,-2.3,,,DJI P3,FC300X,WGS84,64.1564664747,-145.853298153,19.1,81.2,65.5,22.1,89.9,0,277.7623006006,,64.1564664747,-145.853298153,100,64.1565133339,-145.8528914357,64.1566238302,-145.8535148862,64.1563091192,-145.8530814198,64.1564196155,-145.8537048703,,,,,,,,,,,,,,,,,,,,,,,,,,,,,,,,,,,,,,,,,,,,,,,,,,,,,,,,,,,,
,1447400977,Delta,N112AQ,28.3,4.8,-2.2,,,DJI P3,FC300X,WGS84,64.1564663819,-145.853297225,19.1,81.2,65.5,23.4,90,0,277.7278364831,,64.1564663819,-145.853297225,100,64.1565092016,-145.8528881767,64.1566258431,-145.8535057233,64.1563069207,-145.8530887267,64.1564235622,-145.8537062733,,,,,,,,,,,,,,,,,,,,,,,,,,,,,,,,,,,,,,,,,,,,,,,,,,,,,,,,,,,,
,1447400977,Delta,N112AQ,29.9,4.7,-2.2,,,DJI P3,FC300X,WGS84,64.1564662545,-145.853296673,19,81.2,65.5,25.3,90,0,277.6761301129,,64.1564662545,-145.853296673,100,64.1565029381,-145.8528867544,64.156627795,-145.8534919162,64.156304714,-145.8531014298,64.1564295709,-145.8537065916,,,,,,,,,,,,,,,,,,,,,,,,,,,,,,,,,,,,,,,,,,,,,,,,,,,,,,,,,,,,
,1447400977,Delta,N112AQ,30.1,4.4,-2.1,,,DJI P3,FC300X,WGS84,64.1564662563,-145.853295928,18.9,81.2,65.5,25.8,90,0,277.6693055317,,64.1564662563,-145.853295928,100,64.1565011923,-145.8528874528,64.1566276803,-145.8534869235,64.1563048323,-145.8531049325,64.1564313203,-145.8537044032,,,,,,,,,,,,,,,,,,,,,,,,,,,,,,,,,,,,,,,,,,,,,,,,,,,,,,,,,,,,
,1447400977,Delta,N112AQ,30.3,4.5,-2.2,,,DJI P3,FC300X,WGS84,64.1564661236,-145.853295834,18.9,81.2,65.5,26.7,89.9,0,277.6344439545,,64.1564661236,-145.853295834,100,64.1564982548,-145.852886152,64.1566288371,-145.8534809967,64.1563034101,-145.8531106713,64.1564339924,-145.853705516,,,,,,,,,,,,,,,,,,,,,,,,,,,,,,,,,,,,,,,,,,,,,,,,,,,,,,,,,,,,
,1447400977,Delta,N112AQ,30.4,4.5,-2,,,DJI P3,FC300X,WGS84,64.156466158,-145.853295591,18.9,81.2,65.5,27,90,0,277.6344439545,,64.156466158,-145.853295591,100,64.1564973525,-145.8528855291,64.1566292924,-145.8534787993,64.1563030236,-145.8531123827,64.1564349635,-145.8537056529,,,,,,,,,,,,,,,,,,,,,,,,,,,,,,,,,,,,,,,,,,,,,,,,,,,,,,,,,,,,
,1447400978,Delta,N112AQ,30.6,4.8,-2,,,DJI P3,FC300X,WGS84,64.1564661619,-145.853295065,18.9,81.2,65.5,27.3,90,0,277.6163281211,,64.1564661619,-145.853295065,100,64.1564964189,-145.8528846345,64.1566297128,-145.8534763138,64.156302611,-145.8531138162,64.1564359049,-145.8537054955,,,,,,,,,,,,,,,,,,,,,,,,,,,,,,,,,,,,,,,,,,,,,,,,,,,,,,,,,,,,
,1447400978,Delta,N112AQ,30.9,2.2,-2.5,,,DJI P3,FC300X,WGS84,64.1564658443,-145.853294868,18.8,81.2,65.5,27.6,90,0,277.6095380916,,64.1564658443,-145.853294868,100,64.1564950077,-145.8528862537,64.1566289396,-145.8534732038,64.156302749,-145.8531165323,64.1564366809,-145.8537034823,,,,,,,,,,,,,,,,,,,,,,,,,,,,,,,,,,,,,,,,,,,,,,,,,,,,,,,,,,,,
,1447400978,Delta,N112AQ,31.1,-0.5,-2.7,,,DJI P3,FC300X,WGS84,64.1564659527,-145.853294287,18.8,81.2,65.5,27.9,90,0,277.5610961084,,64.1564659527,-145.853294287,100,64.1564941819,-145.8528853284,64.1566294533,-145.8534706638,64.1563024521,-145.8531179102,64.1564377235,-145.8537032456,,,,,,,,,,,,,,,,,,,,,,,,,,,,,,,,,,,,,,,,,,,,,,,,,,,,,,,,,,,,
,1447400978,Delta,N112AQ,31.2,-3,-2.8,,,DJI P3,FC300X,WGS84,64.1564659346,-145.853294223,18.8,81.2,65.5,28.1,90,0,277.5610961084,,64.1564659346,-145.853294223,100,64.1564935406,-145.8528850412,64.156629703,-145.8534692912,64.1563021662,-145.8531191549,64.1564383286,-145.8537034048,,,,,,,,,,,,,,,,,,,,,,,,,,,,,,,,,,,,,,,,,,,,,,,,,,,,,,,,,,,,
,1447400978,Delta,N112AQ,31.4,-4.6,-2.7,,,DJI P3,FC300X,WGS84,64.1564661273,-145.853293965,18.8,81.2,65.5,28.5,90,0,277.5522663354,,64.1564661273,-145.853293965,100,64.1564924858,-145.8528843516,64.1566304251,-145.8534664095,64.1563018295,-145.8531215205,64.1564397688,-145.8537035784,,,,,,,,,,,,,,,,,,,,,,,,,,,,,,,,,,,,,,,,,,,,,,,,,,,,,,,,,,,,
,1447400978,Delta,N112AQ,31.5,-5.3,-2.4,,,DJI P3,FC300X,WGS84,64.156466479,-145.85329349,18.8,81.2,65.5,28.7,90,0,277.5522663354,,64.156466479,-145.85329349,100,64.1564922132,-145.8528836683,64.1566310386,-145.8534646195,64.1563019194,-145.8531223605,64.1564407448,-145.8537033117,,,,,,,,,,,,,,,,,,,,,,,,,,,,,,,,,,,,,,,,,,,,,,,,,,,,,,,,,,,,
,1447400978,Delta,N112AQ,31.6,-4.3,-2.5,,,DJI P3,FC300X,WGS84,64.1564671476,-145.853292397,18.8,81.2,65.5,28.8,89.9,0,277.5833227834,,64.1564671476,-145.853292397,100,64.1564925696,-145.852882473,64.1566318373,-145.8534628682,64.1563024579,-145.8531219258,64.1564417256,-145.853702321,,,,,,,,,,,,,,,,,,,,,,,,,,,,,,,,,,,,,,,,,,,,,,,,,,,,,,,,,,,,
,1447400978,Delta,N112AQ,31.4,-0.4,-2.4,,,DJI P3,FC300X,WGS84,64.1564677789,-145.853291201,18.8,81.2,65.5,29,89.9,0,277.5833227834,,64.1564677789,-145.853291201,100,64.1564925762,-145.8528810762,64.1566327273,-145.853460354,64.1563028305,-145.853122048,64.1564429816,-145.8537013258,,,,,,,,,,,,,,,,,,,,,,,,,,,,,,,,,,,,,,,,,,,,,,,,,,,,,,,,,,,,
,1447400979,Delta,N112AQ,31.3,2.4,-2.3,,,DJI P3,FC300X,WGS84,64.1564682925,-145.8532906,18.8,81.2,65.5,29.1,90,0,277.6431217146,,64.1564682925,-145.8532906,100,64.1564927773,-145.8528803766,64.1566333695,-145.8534590932,64.1563032155,-145.8531221068,64.1564438077,-145.8537008234,,,,,,,,,,,,,,,,,,,,,,,,,,,,,,,,,,,,,,,,,,,,,,,,,,,,,,,,,,,,
,1447400979,Delta,N112AQ,31.3,3.9,-2.2,,,DJI P3,FC300X,WGS84,64.1564689803,-145.853289525,18.7,81.2,65.5,29.3,89.9,0,277.6363683587,,64.1564689803,-145.853289525,100,64.156492713,-145.8528812914,64.1566334336,-145.8534558078,64.156304527,-145.8531232422,64.1564452476,-145.8536977586,,,,,,,,,,,,,,,,,,,,,,,,,,,,,,,,,,,,,,,,,,,,,,,,,,,,,,,,,,,,
,1447400979,Delta,N112AQ,31.4,4.7,-2.2,,,DJI P3,FC300X,WGS84,64.1564694694,-145.853288949,18.7,81.2,65.5,29.5,89.6,0,277.703445948,,64.1564694694,-145.853288949,100,64.15649258,-145.852880528,64.156634175,-145.8534539156,64.1563047638,-145.8531239824,64.1564463588,-145.85369737,,,,,,,,,,,,,,,,,,,,,,,,,,,,,,,,,,,,,,,,,,,,,,,,,,,,,,,,,,,,
,1447400979,Delta,N112AQ,31.3,5.3,-2.2,,,DJI P3,FC300X,WGS84,64.1564700133,-145.853287599,18.7,81.2,65.5,29.5,89.6,0,277.703445948,,64.1564700133,-145.853287599,100,64.1564931239,-145.852879178,64.1566347189,-145.8534525656,64.1563053077,-145.8531226324,64.1564469027,-145.85369602,,,,,,,,,,,,,,,,,,,,,,,,,,,,,,,,,,,,,,,,,,,,,,,,,,,,,,,,,,,,
,1447400979,Delta,N112AQ,31.3,5.3,-2.2,,,DJI P3,FC300X,WGS84,64.1564700133,-145.853287599,18.7,81.2,65.5,29.6,88.3,0,277.7482963254,,64.1564700133,-145.853287599,100,64.1564931239,-145.852879178,64.1566347189,-145.8534525656,64.1563053077,-145.8531226324,64.1564469027,-145.85369602,,,,,,,,,,,,,,,,,,,,,,,,,,,,,,,,,,,,,,,,,,,,,,,,,,,,,,,,,,,,
,1447400979,Delta,N112AQ,31.4,6.6,-2,,,DJI P3,FC300X,WGS84,64.1564700133,-145.853287599,18.7,81.2,65.5,29.7,86.9,0,277.7482963254,,64.1564700133,-145.853287599,100,64.1564931239,-145.852879178,64.1566347189,-145.8534525656,64.1563053077,-145.8531226324,64.1564469027,-145.85369602,,,,,,,,,,,,,,,,,,,,,,,,,,,,,,,,,,,,,,,,,,,,,,,,,,,,,,,,,,,,
,1447400979,Delta,N112AQ,31.4,7.2,-2,,,DJI P3,FC300X,WGS84,64.1564700133,-145.853287599,18.7,81.2,65.5,29.8,85.6,0,277.7482963254,,64.1564700133,-145.853287599,100,64.1564931239,-145.852879178,64.1566347189,-145.8534525656,64.1563053077,-145.8531226324,64.1564469027,-145.85369602,,,,,,,,,,,,,,,,,,,,,,,,,,,,,,,,,,,,,,,,,,,,,,,,,,,,,,,,,,,,
,1447400979,Delta,N112AQ,31.4,7.4,-1.7,,,DJI P3,FC300X,WGS84,64.1564700133,-145.853287599,18.7,81.2,65.5,29.8,84.3,0,277.8357744469,,64.1564700133,-145.853287599,100,64.1564931239,-145.852879178,64.1566347189,-145.8534525656,64.1563053077,-145.8531226324,64.1564469027,-145.85369602,,,,,,,,,,,,,,,,,,,,,,,,,,,,,,,,,,,,,,,,,,,,,,,,,,,,,,,,,,,,
,1447400980,Delta,N112AQ,31.4,7.6,-1.6,,,DJI P3,FC300X,WGS84,64.1564700133,-145.853287599,18.7,81.2,65.5,30,81.6,0,277.8357744469,,64.1564700133,-145.853287599,100,64.1564931239,-145.852879178,64.1566347189,-145.8534525656,64.1563053077,-145.8531226324,64.1564469027,-145.85369602,,,,,,,,,,,,,,,,,,,,,,,,,,,,,,,,,,,,,,,,,,,,,,,,,,,,,,,,,,,,
,1447400980,Delta,N112AQ,31.4,7.1,-1.4,,,DJI P3,FC300X,WGS84,64.1564700133,-145.853287599,18.7,81.2,65.5,30,80.3,0,277.8918908291,,64.1564700133,-145.853287599,100,64.1564931239,-145.852879178,64.1566347189,-145.8534525656,64.1563053077,-145.8531226324,64.1564469027,-145.85369602,,,,,,,,,,,,,,,,,,,,,,,,,,,,,,,,,,,,,,,,,,,,,,,,,,,,,,,,,,,,
,1447400980,Delta,N112AQ,31.4,6.6,-1.3,,,DJI P3,FC300X,WGS84,64.1564700133,-145.853287599,18.7,81.2,65.5,30.1,79,0,277.8918908291,,64.1564700133,-145.853287599,100,64.1564931239,-145.852879178,64.1566347189,-145.8534525656,64.1563053077,-145.8531226324,64.1564469027,-145.85369602,,,,,,,,,,,,,,,,,,,,,,,,,,,,,,,,,,,,,,,,,,,,,,,,,,,,,,,,,,,,
,1447400980,Delta,N112AQ,31.4,6.2,-1.3,,,DJI P3,FC300X,WGS84,64.1564700133,-145.853287599,18.8,81.2,65.5,30.1,79,0,277.9603858715,,64.1564700133,-145.853287599,100,64.1564931239,-145.852879178,64.1566347189,-145.8534525656,64.1563053077,-145.8531226324,64.1564469027,-145.85369602,,,,,,,,,,,,,,,,,,,,,,,,,,,,,,,,,,,,,,,,,,,,,,,,,,,,,,,,,,,,
,1447400980,Delta,N112AQ,31.4,5.9,-1.3,,,DJI P3,FC300X,WGS84,64.1564700133,-145.853287599,18.8,81.2,65.5,30.1,77.7,0,277.9603858715,,64.1564700133,-145.853287599,100,64.1564931239,-145.852879178,64.1566347189,-145.8534525656,64.1563053077,-145.8531226324,64.1564469027,-145.85369602,,,,,,,,,,,,,,,,,,,,,,,,,,,,,,,,,,,,,,,,,,,,,,,,,,,,,,,,,,,,
,1447400980,Delta,N112AQ,31.5,5.7,-1.4,,,DJI P3,FC300X,WGS84,64.1564700133,-145.853287599,18.8,81.2,65.5,30.2,76.4,0,278.0257266612,,64.1564700133,-145.853287599,100,64.1564931239,-145.852879178,64.1566347189,-145.8534525656,64.1563053077,-145.8531226324,64.1564469027,-145.85369602,,,,,,,,,,,,,,,,,,,,,,,,,,,,,,,,,,,,,,,,,,,,,,,,,,,,,,,,,,,,
,1447400980,Delta,N112AQ,31.5,5.8,-1.4,,,DJI P3,FC300X,WGS84,64.1564700133,-145.853287599,18.8,81.2,65.5,30.2,75,0,278.0257266612,,64.1564700133,-145.853287599,100,64.1564931239,-145.852879178,64.1566347189,-145.8534525656,64.1563053077,-145.8531226324,64.1564469027,-145.85369602,,,,,,,,,,,,,,,,,,,,,,,,,,,,,,,,,,,,,,,,,,,,,,,,,,,,,,,,,,,,
,1447400980,Delta,N112AQ,31.6,5.5,-1.1,,,DJI P3,FC300X,WGS84,64.1564700133,-145.853287599,18.9,81.2,65.5,30.3,72.4,0,278.0325065267,,64.1564700133,-145.853287599,100,64.1564931239,-145.852879178,64.1566347189,-145.8534525656,64.1563053077,-145.8531226324,64.1564469027,-145.85369602,,,,,,,,,,,,,,,,,,,,,,,,,,,,,,,,,,,,,,,,,,,,,,,,,,,,,,,,,,,,
,1447400980,Delta,N112AQ,31.6,5.4,-0.9,,,DJI P3,FC300X,WGS84,64.1564700133,-145.853287599,18.9,81.2,65.5,30.4,71.1,0,278.0611267011,,64.1564700133,-145.853287599,100,64.1564931239,-145.852879178,64.1566347189,-145.8534525656,64.1563053077,-145.8531226324,64.1564469027,-145.85369602,,,,,,,,,,,,,,,,,,,,,,,,,,,,,,,,,,,,,,,,,,,,,,,,,,,,,,,,,,,,
,1447400981,Delta,N112AQ,31.7,4.7,-1,,,DJI P3,FC300X,WGS84,64.1564700133,-145.853287599,18.9,81.2,65.5,30.4,69.7,0,278.0611267011,,64.1564700133,-145.853287599,100,64.1564931239,-145.852879178,64.1566347189,-145.8534525656,64.1563053077,-145.8531226324,64.1564469027,-145.85369602,,,,,,,,,,,,,,,,,,,,,,,,,,,,,,,,,,,,,,,,,,,,,,,,,,,,,,,,,,,,
,1447400981,Delta,N112AQ,31.7,4.4,-0.9,,,DJI P3,FC300X,WGS84,64.1564700133,-145.853287599,18.9,81.2,65.5,30.5,68.4,0,278.0898991234,,64.1564700133,-145.853287599,100,64.1564931239,-145.852879178,64.1566347189,-145.8534525656,64.1563053077,-145.8531226324,64.1564469027,-145.85369602,,,,,,,,,,,,,,,,,,,,,,,,,,,,,,,,,,,,,,,,,,,,,,,,,,,,,,,,,,,,
,1447400981,Delta,N112AQ,31.7,4.3,-0.9,,,DJI P3,FC300X,WGS84,64.1564700133,-145.853287599,18.9,81.2,65.5,30.5,67.1,0,278.0898991234,,64.1564700133,-145.853287599,100,64.1564931239,-145.852879178,64.1566347189,-145.8534525656,64.1563053077,-145.8531226324,64.1564469027,-145.85369602,,,,,,,,,,,,,,,,,,,,,,,,,,,,,,,,,,,,,,,,,,,,,,,,,,,,,,,,,,,,
,1447400981,Delta,N112AQ,31.7,4,-1,,,DJI P3,FC300X,WGS84,64.1564700133,-145.853287599,18.9,81.2,65.5,30.5,65.8,0,278.086945763,,64.1564700133,-145.853287599,100,64.1564931239,-145.852879178,64.1566347189,-145.8534525656,64.1563053077,-145.8531226324,64.1564469027,-145.85369602,,,,,,,,,,,,,,,,,,,,,,,,,,,,,,,,,,,,,,,,,,,,,,,,,,,,,,,,,,,,
,1447400981,Delta,N112AQ,31.6,3.9,-1,,,DJI P3,FC300X,WGS84,64.1564700133,-145.853287599,18.9,81.2,65.5,30.6,63.1,0,278.086945763,,64.1564700133,-145.853287599,100,64.1564931239,-145.852879178,64.1566347189,-145.8534525656,64.1563053077,-145.8531226324,64.1564469027,-145.85369602,,,,,,,,,,,,,,,,,,,,,,,,,,,,,,,,,,,,,,,,,,,,,,,,,,,,,,,,,,,,
,1447400981,Delta,N112AQ,31.7,3.6,-1.1,,,DJI P3,FC300X,WGS84,64.1564700133,-145.853287599,18.9,81.2,65.5,30.6,61.8,0,278.0964452317,,64.1564700133,-145.853287599,100,64.1564931239,-145.852879178,64.1566347189,-145.8534525656,64.1563053077,-145.8531226324,64.1564469027,-145.85369602,,,,,,,,,,,,,,,,,,,,,,,,,,,,,,,,,,,,,,,,,,,,,,,,,,,,,,,,,,,,
,1447400981,Delta,N112AQ,31.7,3.5,-1.2,,,DJI P3,FC300X,WGS84,64.1564700133,-145.853287599,18.9,81.2,65.5,30.7,60.5,0,278.0964452317,,64.1564700133,-145.853287599,100,64.1564931239,-145.852879178,64.1566347189,-145.8534525656,64.1563053077,-145.8531226324,64.1564469027,-145.85369602,,,,,,,,,,,,,,,,,,,,,,,,,,,,,,,,,,,,,,,,,,,,,,,,,,,,,,,,,,,,
,1447400981,Delta,N112AQ,31.6,3.4,-1.2,,,DJI P3,FC300X,WGS84,64.1564700133,-145.853287599,18.9,81.2,65.5,30.7,59.1,0,278.0951969047,,64.1564700133,-145.853287599,100,64.1564931239,-145.852879178,64.1566347189,-145.8534525656,64.1563053077,-145.8531226324,64.1564469027,-145.85369602,,,,,,,,,,,,,,,,,,,,,,,,,,,,,,,,,,,,,,,,,,,,,,,,,,,,,,,,,,,,
,1447400981,Delta,N112AQ,31.6,3.3,-1.4,,,DJI P3,FC300X,WGS84,64.1564700133,-145.853287599,18.9,81.2,65.5,30.7,57.8,0,278.0951969047,,64.1564700133,-145.853287599,100,64.1564931239,-145.852879178,64.1566347189,-145.8534525656,64.1563053077,-145.8531226324,64.1564469027,-145.85369602,,,,,,,,,,,,,,,,,,,,,,,,,,,,,,,,,,,,,,,,,,,,,,,,,,,,,,,,,,,,
,1447400982,Delta,N112AQ,31.5,3.2,-1.4,,,DJI P3,FC300X,WGS84,64.1564700133,-145.853287599,18.9,81.2,65.5,30.7,56.7,0,278.0954100338,,64.1564700133,-145.853287599,100,64.1564931239,-145.852879178,64.1566347189,-145.8534525656,64.1563053077,-145.8531226324,64.1564469027,-145.85369602,,,,,,,,,,,,,,,,,,,,,,,,,,,,,,,,,,,,,,,,,,,,,,,,,,,,,,,,,,,,
,1447400982,Delta,N112AQ,31.5,3.2,-1.4,,,DJI P3,FC300X,WGS84,64.1564700133,-145.853287599,18.9,81.2,65.5,30.8,54.5,0,278.0954100338,,64.1564700133,-145.853287599,100,64.1564931239,-145.852879178,64.1566347189,-145.8534525656,64.1563053077,-145.8531226324,64.1564469027,-145.85369602,,,,,,,,,,,,,,,,,,,,,,,,,,,,,,,,,,,,,,,,,,,,,,,,,,,,,,,,,,,,
,1447400982,Delta,N112AQ,31.3,3.3,-1.4,,,DJI P3,FC300X,WGS84,64.1564700133,-145.853287599,18.9,81.2,65.5,30.8,54.2,0,278.0844491083,,64.1564700133,-145.853287599,100,64.1564931239,-145.852879178,64.1566347189,-145.8534525656,64.1563053077,-145.8531226324,64.1564469027,-145.85369602,,,,,,,,,,,,,,,,,,,,,,,,,,,,,,,,,,,,,,,,,,,,,,,,,,,,,,,,,,,,
,1447400982,Delta,N112AQ,31.2,3,-1.5,,,DJI P3,FC300X,WGS84,64.1564700133,-145.853287599,18.9,81.2,65.5,30.8,54.2,0,278.0844491083,,64.1564700133,-145.853287599,100,64.1564931239,-145.852879178,64.1566347189,-145.8534525656,64.1563053077,-145.8531226324,64.1564469027,-145.85369602,,,,,,,,,,,,,,,,,,,,,,,,,,,,,,,,,,,,,,,,,,,,,,,,,,,,,,,,,,,,
,1447400982,Delta,N112AQ,31.2,3,-1.5,,,DJI P3,FC300X,WGS84,64.1564700133,-145.853287599,18.9,81.2,65.5,30.8,54.2,0,278.0737013129,,64.1564700133,-145.853287599,100,64.1564931239,-145.852879178,64.1566347189,-145.8534525656,64.1563053077,-145.8531226324,64.1564469027,-145.85369602,,,,,,,,,,,,,,,,,,,,,,,,,,,,,,,,,,,,,,,,,,,,,,,,,,,,,,,,,,,,
,1447400982,Delta,N112AQ,31.2,3.1,-1.6,,,DJI P3,FC300X,WGS84,64.1564700133,-145.853287599,18.9,81.2,65.5,30.8,54.2,0,278.0737013129,,64.1564700133,-145.853287599,100,64.1564931239,-145.852879178,64.1566347189,-145.8534525656,64.1563053077,-145.8531226324,64.1564469027,-145.85369602,,,,,,,,,,,,,,,,,,,,,,,,,,,,,,,,,,,,,,,,,,,,,,,,,,,,,,,,,,,,
,1447400982,Delta,N112AQ,31.2,3.1,-1.7,,,DJI P3,FC300X,WGS84,64.1564700133,-145.853287599,18.9,81.2,65.5,30.8,54.2,0,278.0595434571,,64.1564700133,-145.853287599,100,64.1564931239,-145.852879178,64.1566347189,-145.8534525656,64.1563053077,-145.8531226324,64.1564469027,-145.85369602,,,,,,,,,,,,,,,,,,,,,,,,,,,,,,,,,,,,,,,,,,,,,,,,,,,,,,,,,,,,
,1447400982,Delta,N112AQ,31.2,3.1,-1.7,,,DJI P3,FC300X,WGS84,64.1564700133,-145.853287599,18.9,81.2,65.5,30.8,54.2,0,278.0595434571,,64.1564700133,-145.853287599,100,64.1564931239,-145.852879178,64.1566347189,-145.8534525656,64.1563053077,-145.8531226324,64.1564469027,-145.85369602,,,,,,,,,,,,,,,,,,,,,,,,,,,,,,,,,,,,,,,,,,,,,,,,,,,,,,,,,,,,
,1447400983,Delta,N112AQ,31.3,3.4,-1.6,,,DJI P3,FC300X,WGS84,64.1564700133,-145.853287599,18.9,81.2,65.5,30.8,54.2,0,278.0524797537,,64.1564700133,-145.853287599,100,64.1564931239,-145.852879178,64.1566347189,-145.8534525656,64.1563053077,-145.8531226324,64.1564469027,-145.85369602,,,,,,,,,,,,,,,,,,,,,,,,,,,,,,,,,,,,,,,,,,,,,,,,,,,,,,,,,,,,
,1447400983,Delta,N112AQ,31.3,3.5,-1.6,,,DJI P3,FC300X,WGS84,64.1564700133,-145.853287599,18.9,81.2,65.5,30.8,54,0,278.0524797537,,64.1564700133,-145.853287599,100,64.1564931239,-145.852879178,64.1566347189,-145.8534525656,64.1563053077,-145.8531226324,64.1564469027,-145.85369602,,,,,,,,,,,,,,,,,,,,,,,,,,,,,,,,,,,,,,,,,,,,,,,,,,,,,,,,,,,,
,1447400983,Delta,N112AQ,31.3,3.6,-1.6,,,DJI P3,FC300X,WGS84,64.1564700133,-145.853287599,18.9,81.2,65.5,30.8,53.8,0,278.0505006985,,64.1564700133,-145.853287599,100,64.1564931239,-145.852879178,64.1566347189,-145.8534525656,64.1563053077,-145.8531226324,64.1564469027,-145.85369602,,,,,,,,,,,,,,,,,,,,,,,,,,,,,,,,,,,,,,,,,,,,,,,,,,,,,,,,,,,,
,1447400983,Delta,N112AQ,31.3,3.7,-1.6,,,DJI P3,FC300X,WGS84,64.1564700133,-145.853287599,18.9,81.2,65.5,30.8,53.5,0,278.0505006985,,64.1564700133,-145.853287599,100,64.1564931239,-145.852879178,64.1566347189,-145.8534525656,64.1563053077,-145.8531226324,64.1564469027,-145.85369602,,,,,,,,,,,,,,,,,,,,,,,,,,,,,,,,,,,,,,,,,,,,,,,,,,,,,,,,,,,,
,1447400983,Delta,N112AQ,31.2,3.7,-1.5,,,DJI P3,FC300X,WGS84,64.1564700133,-145.853287599,18.9,81.2,65.5,30.9,53.1,0,278.0492523715,,64.1564700133,-145.853287599,100,64.1564931239,-145.852879178,64.1566347189,-145.8534525656,64.1563053077,-145.8531226324,64.1564469027,-145.85369602,,,,,,,,,,,,,,,,,,,,,,,,,,,,,,,,,,,,,,,,,,,,,,,,,,,,,,,,,,,,
,1447400983,Delta,N112AQ,31.2,3.7,-1.5,,,DJI P3,FC300X,WGS84,64.1564700133,-145.853287599,18.9,81.2,65.5,30.9,52.5,0,278.0492523715,,64.1564700133,-145.853287599,100,64.1564931239,-145.852879178,64.1566347189,-145.8534525656,64.1563053077,-145.8531226324,64.1564469027,-145.85369602,,,,,,,,,,,,,,,,,,,,,,,,,,,,,,,,,,,,,,,,,,,,,,,,,,,,,,,,,,,,
,1447400983,Delta,N112AQ,31.2,3.8,-1.5,,,DJI P3,FC300X,WGS84,64.1564700133,-145.853287599,18.9,81.2,65.5,30.9,52.2,0,278.0454769449,,64.1564700133,-145.853287599,100,64.1564931239,-145.852879178,64.1566347189,-145.8534525656,64.1563053077,-145.8531226324,64.1564469027,-145.85369602,,,,,,,,,,,,,,,,,,,,,,,,,,,,,,,,,,,,,,,,,,,,,,,,,,,,,,,,,,,,
,1447400983,Delta,N112AQ,31.3,3.7,-1.4,,,DJI P3,FC300X,WGS84,64.1564700133,-145.853287599,18.9,81.2,65.5,30.9,51.8,0,278.0454769449,,64.1564700133,-145.853287599,100,64.1564931239,-145.852879178,64.1566347189,-145.8534525656,64.1563053077,-145.8531226324,64.1564469027,-145.85369602,,,,,,,,,,,,,,,,,,,,,,,,,,,,,,,,,,,,,,,,,,,,,,,,,,,,,,,,,,,,
,1447400983,Delta,N112AQ,31.4,3.7,-1.4,,,DJI P3,FC300X,WGS84,64.1564700133,-145.853287599,18.9,81.2,65.5,30.9,51.4,0,278.0510791915,,64.1564700133,-145.853287599,100,64.1564931239,-145.852879178,64.1566347189,-145.8534525656,64.1563053077,-145.8531226324,64.1564469027,-145.85369602,,,,,,,,,,,,,,,,,,,,,,,,,,,,,,,,,,,,,,,,,,,,,,,,,,,,,,,,,,,,
,1447400984,Delta,N112AQ,31.4,3.9,-1.4,,,DJI P3,FC300X,WGS84,64.1564700133,-145.853287599,18.9,81.2,65.5,30.9,50.8,0,278.0510791915,,64.1564700133,-145.853287599,100,64.1564931239,-145.852879178,64.1566347189,-145.8534525656,64.1563053077,-145.8531226324,64.1564469027,-145.85369602,,,,,,,,,,,,,,,,,,,,,,,,,,,,,,,,,,,,,,,,,,,,,,,,,,,,,,,,,,,,
