Checksum,UNIX Time Stamp,Mission ID,Platform Tail Number,Platform Heading Angle,Platform Pitch Angle,Platform Roll Angle,Platform True Airspeed,Platform Indicated Airspeed,Platform Designation,Image Source Sensor,Image Coordinate System,Sensor Latitude,Sensor Longitude,Sensor True Altitude,Sensor Horizontal Field of View,Sensor Vertical Field of View,Sensor Relative Azimuth Angle,Sensor Relative Elevation Angle,Sensor Relative Roll Angle,Slant Range,Target Width,Frame Center Latitude,Frame Center Longitude,Frame Center Elevation,Offset Corner Latitude Point 1,Offset Corner Longitude Point 1,Offset Corner Latitude Point 2,Offset Corner Longitude Point 2,Offset Corner Latitude Point 3, Offset Corner Longitude Point 3, Offset Corner Latitude Point 4, Offset Corner Longitude Point 4, Icing Detected, Wind Direction, Wind Speed, Static Pressure, Density Altitude, Outside Air Temperature, Target Location Latitude, Target Location Longitude, Target Location Elevation, Target Track Gate Width, Target Track Gate Height, Target Error Estimate - CE90, Target Error Estimate - LE90, Generic Flag Data 01, Security Local Metadata Set, Differential Pressure, Platform Angle of Attack, Platform Vertical Speed, Platform Sideslip Angle, Airfield Barometric Pressure, Airfield Elevation, Relative Humidity, Platform Ground Speed, Ground Range, Platform Fuel Remaining, Platform Call Sign, Weapon Load, Weapon Fired, Laser PRF Code, Sensor Field of View Name, Platform Magnetic Heading, UAS LDS Version Number, Target Location Covariance Matrix, Alternate Platform Latitude, Alternate Platform Longitude, Alternate Platform Altitude, Alternate Platform Name, Alternate Platform Heading, Event Start Time - UTC, RVT Local Data Set, VMTI Local Data Set, Sensor Ellipsoid Height, Alternate Platform Ellipsoid Height, Operational Mode, Frame Center Height Above Ellipsoid, Sensor North Velocity, Sensor East Velocity, Image Horizon Pixel Pack, Corner Latitude Point 1 (Full), Corner Longitude Point 1 (Full), Corner Latitude Point 2 (Full), Corner Longitude Point 2 (Full), Corner Latitude Point 3 (Full), Corner Longitude Point 3 (Full), Corner Latitude Point 4 (Full), Corner Longitude Point 4 (Full), Platform Pitch Angle (Full), Platform Roll Angle (Full), Platform Angle of Attack (Full), Platform Sideslip Angle (Full)
,1447400964,Delta,N112AQ,289.5,-1.6,-4.3,,,DJI P3,FC300X,WGS84,64.1563768572,-145.852886587,18.9,81.2,65.5,-70.7,72.5,0,,,,,,,,,,,,,,,,,,,,,,,,,,,,,,,,,,,,,,,,,,,,,,,,,,,,,,,,,,,,,,,,,,,,,,,,,
,1447400964,Delta,N112AQ,289.5,-1.6,-4.2,,,DJI P3,FC300X,WGS84,64.1563755718,-145.85288194,18.9,81.2,65.5,-70.7,89.9,0,,,,,,,,,,,,,,,,,,,,,,,,,,,,,,,,,,,,,,,,,,,,,,,,,,,,,,,,,,,,,,,,,,,,,,,,,
,1447400964,Delta,N112AQ,289.5,-1.6,-4.1,,,DJI P3,FC300X,WGS84,64.1563756387,-145.852882193,18.9,81.2,65.5,-70.7,90,0,,,,,,,,,,,,,,,,,,,,,,,,,,,,,,,,,,,,,,,,,,,,,,,,,,,,,,,,,,,,,,,,,,,,,,,,,
,1447400964,Delta,N112AQ,289.5,-1.7,-4.1,,,DJI P3,FC300X,WGS84,64.1563755734,-145.852882231,18.9,81.2,65.5,-70.7,90,0,,,,,,,,,,,,,,,,,,,,,,,,,,,,,,,,,,,,,,,,,,,,,,,,,,,,,,,,,,,,,,,,,,,,,,,,,
,1447400964,Delta,N112AQ,289.5,-1.8,-4.2,,,DJI P3,FC300X,WGS84,64.1563756496,-145.852882314,18.9,81.2,65.5,-70.7,89.9,0,,,,,,,,,,,,,,,,,,,,,,,,,,,,,,,,,,,,,,,,,,,,,,,,,,,,,,,,,,,,,,,,,,,,,,,,,
,1447400964,Delta,N112AQ,289.5,-1.8,-4.3,,,DJI P3,FC300X,WGS84,64.1563756256,-145.852882522,18.9,81.2,65.5,-70.7,89.9,0,,,,,,,,,,,,,,,,,,,,,,,,,,,,,,,,,,,,,,,,,,,,,,,,,,,,,,,,,,,,,,,,,,,,,,,,,
,1447400965,Delta,N112AQ,289.5,-1.7,-4.2,,,DJI P3,FC300X,WGS84,64.1563756018,-145.852882542,18.9,81.2,65.5,-70.7,90,0,,,,,,,,,,,,,,,,,,,,,,,,,,,,,,,,,,,,,,,,,,,,,,,,,,,,,,,,,,,,,,,,,,,,,,,,,
,1447400965,Delta,N112AQ,289.4,-1.4,-4.1,,,DJI P3,FC300X,WGS84,64.156375628,-145.852882801,18.9,81.2,65.5,-70.7,90,0,,,,,,,,,,,,,,,,,,,,,,,,,,,,,,,,,,,,,,,,,,,,,,,,,,,,,,,,,,,,,,,,,,,,,,,,,
,1447400965,Delta,N112AQ,289.4,-1.3,-4,,,DJI P3,FC300X,WGS84,64.1563756077,-145.852882803,19,81.2,65.5,-70.7,89.9,0,,,,,,,,,,,,,,,,,,,,,,,,,,,,,,,,,,,,,,,,,,,,,,,,,,,,,,,,,,,,,,,,,,,,,,,,,
,1447400965,Delta,N112AQ,289.3,-1.2,-4.1,,,DJI P3,FC300X,WGS84,64.156375485,-145.852882985,19,81.2,65.5,-70.7,89.9,0,,,,,,,,,,,,,,,,,,,,,,,,,,,,,,,,,,,,,,,,,,,,,,,,,,,,,,,,,,,,,,,,,,,,,,,,,
,1447400965,Delta,N112AQ,289.5,-1.3,-4.1,,,DJI P3,FC300X,WGS84,64.156375504,-145.852883206,19,81.2,65.5,-70.7,90,0,,,,,,,,,,,,,,,,,,,,,,,,,,,,,,,,,,,,,,,,,,,,,,,,,,,,,,,,,,,,,,,,,,,,,,,,,
,1447400965,Delta,N112AQ,289.5,-1.3,-4,,,DJI P3,FC300X,WGS84,64.1563754782,-145.8528832,19,81.2,65.5,-70.7,90,0,,,,,,,,,,,,,,,,,,,,,,,,,,,,,,,,,,,,,,,,,,,,,,,,,,,,,,,,,,,,,,,,,,,,,,,,,
,1447400965,Delta,N112AQ,289.6,-1.3,-3.9,,,DJI P3,FC300X,WGS84,64.1563755286,-145.852883327,19,81.2,65.5,-70.7,89.9,0,,,,,,,,,,,,,,,,,,,,,,,,,,,,,,,,,,,,,,,,,,,,,,,,,,,,,,,,,,,,,,,,,,,,,,,,,
,1447400965,Delta,N112AQ,289.5,-1.1,-3.9,,,DJI P3,FC300X,WGS84,64.1563755036,-145.852883313,19,81.2,65.5,-70.7,89.9,0,,,,,,,,,,,,,,,,,,,,,,,,,,,,,,,,,,,,,,,,,,,,,,,,,,,,,,,,,,,,,,,,,,,,,,,,,
,1447400965,Delta,N112AQ,289.4,-1.1,-3.9,,,DJI P3,FC300X,WGS84,64.1563754825,-145.852883486,19,81.2,65.5,-70.7,90,0,,,,,,,,,,,,,,,,,,,,,,,,,,,,,,,,,,,,,,,,,,,,,,,,,,,,,,,,,,,,,,,,,,,,,,,,,
,1447400965,Delta,N112AQ,289.4,-1.3,-3.9,,,DJI P3,FC300X,WGS84,64.1563755559,-145.852883514,19,81.2,65.5,-70.7,90,0,,,,,,,,,,,,,,,,,,,,,,,,,,,,,,,,,,,,,,,,,,,,,,,,,,,,,,,,,,,,,,,,,,,,,,,,,
,1447400966,Delta,N112AQ,289.6,-7.5,-1.2,,,DJI P3,FC300X,WGS84,64.1563755785,-145.852883684,19,81.2,65.5,-70.7,90,0,,,,,,,,,,,,,,,,,,,,,,,,,,,,,,,,,,,,,,,,,,,,,,,,,,,,,,,,,,,,,,,,,,,,,,,,,
,1447400966,Delta,N112AQ,289.4,-11.6,0,,,DJI P3,FC300X,WGS84,64.1563759161,-145.852884402,19,81.2,65.5,-70.7,90,0,,,,,,,,,,,,,,,,,,,,,,,,,,,,,,,,,,,,,,,,,,,,,,,,,,,,,,,,,,,,,,,,,,,,,,,,,
,1447400966,Delta,N112AQ,289.5,-14.2,-2.1,,,DJI P3,FC300X,WGS84,64.1563761741,-145.852885179,19,81.2,65.5,-70.7,90,0,,,,,,,,,,,,,,,,,,,,,,,,,,,,,,,,,,,,,,,,,,,,,,,,,,,,,,,,,,,,,,,,,,,,,,,,,
,1447400966,Delta,N112AQ,289.7,-20.1,-3.2,,,DJI P3,FC300X,WGS84,64.1563765684,-145.852886562,19,81.2,65.5,-70.7,90,0,,,,,,,,,,,,,,,,,,,,,,,,,,,,,,,,,,,,,,,,,,,,,,,,,,,,,,,,,,,,,,,,,,,,,,,,,
,1447400966,Delta,N112AQ,289.7,-22,-3.5,,,DJI P3,FC300X,WGS84,64.1563770099,-145.85288833,19,81.2,65.5,-70.7,90,0,,,,,,,,,,,,,,,,,,,,,,,,,,,,,,,,,,,,,,,,,,,,,,,,,,,,,,,,,,,,,,,,,,,,,,,,,
,1447400966,Delta,N112AQ,289.7,-22.1,-3.6,,,DJI P3,FC300X,WGS84,64.1563777474,-145.85289031,19.1,81.2,65.5,-70.7,90,0,,,,,,,,,,,,,,,,,,,,,,,,,,,,,,,,,,,,,,,,,,,,,,,,,,,,,,,,,,,,,,,,,,,,,,,,,
,1447400966,Delta,N112AQ,289.6,-21.7,-3.5,,,DJI P3,FC300X,WGS84,64.1563783539,-145.852893131,19.1,81.2,65.5,-70.7,90,0,,,,,,,,,,,,,,,,,,,,,,,,,,,,,,,,,,,,,,,,,,,,,,,,,,,,,,,,,,,,,,,,,,,,,,,,,
,1447400967,Delta,N112AQ,289.2,-20.7,-3.4,,,DJI P3,FC300X,WGS84,64.1563800772,-145.852899515,19,81.2,65.5,-70.8,90,0,,,,,,,,,,,,,,,,,,,,,,,,,,,,,,,,,,,,,,,,,,,,,,,,,,,,,,,,,,,,,,,,,,,,,,,,,
,1447400967,Delta,N112AQ,289.1,-20.5,-3.4,,,DJI P3,FC300X,WGS84,64.1563814188,-145.852903751,19,81.2,65.5,-70.8,90,0,,,,,,,,,,,,,,,,,,,,,,,,,,,,,,,,,,,,,,,,,,,,,,,,,,,,,,,,,,,,,,,,,,,,,,,,,
,1447400967,Delta,N112AQ,289.2,-20.4,-3.4,,,DJI P3,FC300X,WGS84,64.1563824027,-145.852908385,19,81.2,65.5,-70.8,90,0,,,,,,,,,,,,,,,,,,,,,,,,,,,,,,,,,,,,,,,,,,,,,,,,,,,,,,,,,,,,,,,,,,,,,,,,,
,1447400967,Delta,N112AQ,289.1,-20.3,-3.4,,,DJI P3,FC300X,WGS84,64.156384267,-145.852912973,18.9,81.2,65.5,-70.8,90,0,,,,,,,,,,,,,,,,,,,,,,,,,,,,,,,,,,,,,,,,,,,,,,,,,,,,,,,,,,,,,,,,,,,,,,,,,
,1447400967,Delta,N112AQ,289.2,-20.1,-3.6,,,DJI P3,FC300X,WGS84,64.1563854677,-145.85291842,18.9,81.2,65.5,-70.9,90,0,,,,,,,,,,,,,,,,,,,,,,,,,,,,,,,,,,,,,,,,,,,,,,,,,,,,,,,,,,,,,,,,,,,,,,,,,
,1447400967,Delta,N112AQ,289.4,-19.9,-3.9,,,DJI P3,FC300X,WGS84,64.1563873295,-145.852924825,18.9,81.2,65.5,-70.9,90,0,,,,,,,,,,,,,,,,,,,,,,,,,,,,,,,,,,,,,,,,,,,,,,,,,,,,,,,,,,,,,,,,,,,,,,,,,
,1447400967,Delta,N112AQ,289.8,-19.8,-3.9,,,DJI P3,FC300X,WGS84,64.1563891404,-145.852930309,18.9,81.2,65.5,-70.9,90,0,,,,,,,,,,,,,,,,,,,,,,,,,,,,,,,,,,,,,,,,,,,,,,,,,,,,,,,,,,,,,,,,,,,,,,,,,
,1447400967,Delta,N112AQ,290.2,-19.6,-4.1,,,DJI P3,FC300X,WGS84,64.1563928428,-145.852944702,18.9,81.2,65.5,-70.9,90,0,,,,,,,,,,,,,,,,,,,,,,,,,,,,,,,,,,,,,,,,,,,,,,,,,,,,,,,,,,,,,,,,,,,,,,,,,
,1447400967,Delta,N112AQ,290.3,-19.5,-4.1,,,DJI P3,FC300X,WGS84,64.1563954653,-145.852952437,18.9,81.2,65.5,-70.9,90,0,,,,,,,,,,,,,,,,,,,,,,,,,,,,,,,,,,,,,,,,,,,,,,,,,,,,,,,,,,,,,,,,,,,,,,,,,
,1447400968,Delta,N112AQ,290.4,-19.4,-4.2,,,DJI P3,FC300X,WGS84,64.156397238,-145.852960338,18.9,81.2,65.5,-70.9,90,0,,,,,,,,,,,,,,,,,,,,,,,,,,,,,,,,,,,,,,,,,,,,,,,,,,,,,,,,,,,,,,,,,,,,,,,,,
,1447400968,Delta,N112AQ,290.4,-18.9,-4.3,,,DJI P3,FC300X,WGS84,64.1563995589,-145.852969368,18.9,81.2,65.5,-70.9,90,0,,,,,,,,,,,,,,,,,,,,,,,,,,,,,,,,,,,,,,,,,,,,,,,,,,,,,,,,,,,,,,,,,,,,,,,,,
,1447400968,Delta,N112AQ,290.4,-18.4,-4.4,,,DJI P3,FC300X,WGS84,64.1564019265,-145.852977736,18.9,81.2,65.5,-70.9,90,0,,,,,,,,,,,,,,,,,,,,,,,,,,,,,,,,,,,,,,,,,,,,,,,,,,,,,,,,,,,,,,,,,,,,,,,,,
,1447400968,Delta,N112AQ,290.4,-17.9,-4.4,,,DJI P3,FC300X,WGS84,64.1564065155,-145.852996608,18.9,81.2,65.5,-70.9,90,0,,,,,,,,,,,,,,,,,,,,,,,,,,,,,,,,,,,,,,,,,,,,,,,,,,,,,,,,,,,,,,,,,,,,,,,,,
,1447400968,Delta,N112AQ,290.5,-17.3,-4.7,,,DJI P3,FC300X,WGS84,64.1564093747,-145.853006871,18.8,81.2,65.5,-70.9,89.9,0,,,,,,,,,,,,,,,,,,,,,,,,,,,,,,,,,,,,,,,,,,,,,,,,,,,,,,,,,,,,,,,,,,,,,,,,,
,1447400968,Delta,N112AQ,290.4,-16.8,-4.8,,,DJI P3,FC300X,WGS84,64.1564115623,-145.853016741,18.8,81.2,65.5,-70.9,89.9,0,,,,,,,,,,,,,,,,,,,,,,,,,,,,,,,,,,,,,,,,,,,,,,,,,,,,,,,,,,,,,,,,,,,,,,,,,
,1447400968,Delta,N112AQ,290.4,-16.6,-4.9,,,DJI P3,FC300X,WGS84,64.1564141093,-145.853027818,18.8,81.2,65.5,-70.9,89.9,0,,,,,,,,,,,,,,,,,,,,,,,,,,,,,,,,,,,,,,,,,,,,,,,,,,,,,,,,,,,,,,,,,,,,,,,,,
,1447400968,Delta,N112AQ,290.5,-16.7,-4.8,,,DJI P3,FC300X,WGS84,64.1564167183,-145.853038305,18.7,81.2,65.5,-70.9,90,0,,,,,,,,,,,,,,,,,,,,,,,,,,,,,,,,,,,,,,,,,,,,,,,,,,,,,,,,,,,,,,,,,,,,,,,,,
,1447400968,Delta,N112AQ,290.5,-16.5,-4.7,,,DJI P3,FC300X,WGS84,64.1564192942,-145.853049821,18.7,81.2,65.5,-70.9,90,0,,,,,,,,,,,,,,,,,,,,,,,,,,,,,,,,,,,,,,,,,,,,,,,,,,,,,,,,,,,,,,,,,,,,,,,,,
,1447400969,Delta,N112AQ,290.6,-15.9,-5,,,DJI P3,FC300X,WGS84,64.156421637,-145.853060818,18.7,81.2,65.5,-70.9,90,0,,,,,,,,,,,,,,,,,,,,,,,,,,,,,,,,,,,,,,,,,,,,,,,,,,,,,,,,,,,,,,,,,,,,,,,,,
,1447400969,Delta,N112AQ,289.9,-14.3,-5,,,DJI P3,FC300X,WGS84,64.1564268079,-145.853084436,18.7,81.2,65.5,-70.9,90,0,,,,,,,,,,,,,,,,,,,,,,,,,,,,,,,,,,,,,,,,,,,,,,,,,,,,,,,,,,,,,,,,,,,,,,,,,
,1447400969,Delta,N112AQ,289.5,-14.3,-4.9,,,DJI P3,FC300X,WGS84,64.1564293934,-145.853096775,18.7,81.2,65.5,-70.9,90,0,,,,,,,,,,,,,,,,,,,,,,,,,,,,,,,,,,,,,,,,,,,,,,,,,,,,,,,,,,,,,,,,,,,,,,,,,
,1447400969,Delta,N112AQ,289.4,-14,-4.9,,,DJI P3,FC300X,WGS84,64.1564319703,-145.853108847,18.7,81.2,65.5,-70.9,89.9,0,,,,,,,,,,,,,,,,,,,,,,,,,,,,,,,,,,,,,,,,,,,,,,,,,,,,,,,,,,,,,,,,,,,,,,,,,
,1447400969,Delta,N112AQ,289.1,-13.6,-4.8,,,DJI P3,FC300X,WGS84,64.1564343823,-145.853121673,18.6,81.2,65.5,-70.9,90,0,,,,,,,,,,,,,,,,,,,,,,,,,,,,,,,,,,,,,,,,,,,,,,,,,,,,,,,,,,,,,,,,,,,,,,,,,
,1447400969,Delta,N112AQ,289.2,-12.9,-4.9,,,DJI P3,FC300X,WGS84,64.1564368148,-145.853133871,18.6,81.2,65.5,-71,90,0,,,,,,,,,,,,,,,,,,,,,,,,,,,,,,,,,,,,,,,,,,,,,,,,,,,,,,,,,,,,,,,,,,,,,,,,,
,1447400969,Delta,N112AQ,288.9,-11.1,-4.9,,,DJI P3,FC300X,WGS84,64.1564392789,-145.853146853,18.7,81.2,65.5,-71,89.9,0,,,,,,,,,,,,,,,,,,,,,,,,,,,,,,,,,,,,,,,,,,,,,,,,,,,,,,,,,,,,,,,,,,,,,,,,,
,1447400970,Delta,N112AQ,289,-9.1,-4.9,,,DJI P3,FC300X,WGS84,64.1564417645,-145.85315957,18.7,81.2,65.5,-71,89.9,0,,,,,,,,,,,,,,,,,,,,,,,,,,,,,,,,,,,,,,,,,,,,,,,,,,,,,,,,,,,,,,,,,,,,,,,,,
,1447400970,Delta,N112AQ,288.7,-3.4,-5,,,DJI P3,FC300X,WGS84,64.1564465099,-145.85318492,18.7,81.2,65.5,-71,90,0,,,,,,,,,,,,,,,,,,,,,,,,,,,,,,,,,,,,,,,,,,,,,,,,,,,,,,,,,,,,,,,,,,,,,,,,,
,1447400970,Delta,N112AQ,288.6,0.6,-4.8,,,DJI P3,FC300X,WGS84,64.1564488545,-145.853197884,18.7,81.2,65.5,-71,89.9,0,,,,,,,,,,,,,,,,,,,,,,,,,,,,,,,,,,,,,,,,,,,,,,,,,,,,,,,,,,,,,,,,,,,,,,,,,
,1447400970,Delta,N112AQ,288.4,6.6,-5,,,DJI P3,FC300X,WGS84,64.1564510532,-145.85320967,18.7,81.2,65.5,-71,89.9,0,,,,,,,,,,,,,,,,,,,,,,,,,,,,,,,,,,,,,,,,,,,,,,,,,,,,,,,,,,,,,,,,,,,,,,,,,
,1447400970,Delta,N112AQ,288.2,14.5,-5.2,,,DJI P3,FC300X,WGS84,64.1564530653,-145.85322143,18.7,81.2,65.5,-71,89.9,0,,,,,,,,,,,,,,,,,,,,,,,,,,,,,,,,,,,,,,,,,,,,,,,,,,,,,,,,,,,,,,,,,,,,,,,,,
,1447400970,Delta,N112AQ,288,20.2,-5.1,,,DJI P3,FC300X,WGS84,64.156455034,-145.853232635,18.7,81.2,65.5,-71,89.9,0,,,,,,,,,,,,,,,,,,,,,,,,,,,,,,,,,,,,,,,,,,,,,,,,,,,,,,,,,,,,,,,,,,,,,,,,,
,1447400970,Delta,N112AQ,288.3,22.4,-4.4,,,DJI P3,FC300X,WGS84,64.1564567571,-145.853242802,18.7,81.2,65.5,-71,89.9,0,,,,,,,,,,,,,,,,,,,,,,,,,,,,,,,,,,,,,,,,,,,,,,,,,,,,,,,,,,,,,,,,,,,,,,,,,
,1447400970,Delta,N112AQ,288.6,25,-3,,,DJI P3,FC300X,WGS84,64.1564597566,-145.853260844,18.7,81.2,65.5,-71,89.9,0,,,,,,,,,,,,,,,,,,,,,,,,,,,,,,,,,,,,,,,,,,,,,,,,,,,,,,,,,,,,,,,,,,,,,,,,,
,1447400970,Delta,N112AQ,288.6,25.6,-2.5,,,DJI P3,FC300X,WGS84,64.1564610603,-145.853268096,18.7,81.2,65.5,-70.9,89.9,0,,,,,,,,,,,,,,,,,,,,,,,,,,,,,,,,,,,,,,,,,,,,,,,,,,,,,,,,,,,,,,,,,,,,,,,,,
,1447400971,Delta,N112AQ,288.4,26.3,-2.2,,,DJI P3,FC300X,WGS84,64.1564619376,-145.853274111,18.8,81.2,65.5,-70.9,89.9,0,,,,,,,,,,,,,,,,,,,,,,,,,,,,,,,,,,,,,,,,,,,,,,,,,,,,,,,,,,,,,,,,,,,,,,,,,
,1447400971,Delta,N112AQ,287.7,26.7,-2.8,,,DJI P3,FC300X,WGS84,64.1564630418,-145.853280969,18.8,81.2,65.5,-70.9,89.9,0,,,,,,,,,,,,,,,,,,,,,,,,,,,,,,,,,,,,,,,,,,,,,,,,,,,,,,,,,,,,,,,,,,,,,,,,,
,1447400971,Delta,N112AQ,286.9,26,-4.2,,,DJI P3,FC300X,WGS84,64.1564632432,-145.853284827,18.8,81.2,65.5,-70.9,90,0,,,,,,,,,,,,,,,,,,,,,,,,,,,,,,,,,,,,,,,,,,,,,,,,,,,,,,,,,,,,,,,,,,,,,,,,,
,1447400971,Delta,N112AQ,286.8,17,-5,,,DJI P3,FC300X,WGS84,64.1564638724,-145.853291502,18.9,81.2,65.5,-70.9,89.9,0,,,,,,,,,,,,,,,,,,,,,,,,,,,,,,,,,,,,,,,,,,,,,,,,,,,,,,,,,,,,,,,,,,,,,,,,,
,1447400971,Delta,N112AQ,287.3,12.4,-4.7,,,DJI P3,FC300X,WGS84,64.1564642838,-145.853293766,18.9,81.2,65.5,-70.9,89.9,0,,,,,,,,,,,,,,,,,,,,,,,,,,,,,,,,,,,,,,,,,,,,,,,,,,,,,,,,,,,,,,,,,,,,,,,,,
,1447400971,Delta,N112AQ,288.5,8.6,-4.5,,,DJI P3,FC300X,WGS84,64.1564638665,-145.853294011,19,81.2,65.5,-70.9,90,0,,,,,,,,,,,,,,,,,,,,,,,,,,,,,,,,,,,,,,,,,,,,,,,,,,,,,,,,,,,,,,,,,,,,,,,,,
,1447400971,Delta,N112AQ,289.6,5.6,-4.2,,,DJI P3,FC300X,WGS84,64.1564638076,-145.853296551,19,81.2,65.5,-70.9,90,0,,,,,,,,,,,,,,,,,,,,,,,,,,,,,,,,,,,,,,,,,,,,,,,,,,,,,,,,,,,,,,,,,,,,,,,,,
,1447400971,Delta,N112AQ,289.8,3.4,-3.8,,,DJI P3,FC300X,WGS84,64.1564631759,-145.853296161,19.1,81.2,65.5,-70.9,90,0,,,,,,,,,,,,,,,,,,,,,,,,,,,,,,,,,,,,,,,,,,,,,,,,,,,,,,,,,,,,,,,,,,,,,,,,,
,1447400971,Delta,N112AQ,289.7,1.4,-3.1,,,DJI P3,FC300X,WGS84,64.1564632351,-145.853297249,19.1,81.2,65.5,-70.9,90,0,,,,,,,,,,,,,,,,,,,,,,,,,,,,,,,,,,,,,,,,,,,,,,,,,,,,,,,,,,,,,,,,,,,,,,,,,
,1447400972,Delta,N112AQ,289.8,0.2,-2.6,,,DJI P3,FC300X,WGS84,64.1564621026,-145.853296785,19.1,81.2,65.5,-70.9,90,0,,,,,,,,,,,,,,,,,,,,,,,,,,,,,,,,,,,,,,,,,,,,,,,,,,,,,,,,,,,,,,,,,,,,,,,,,
,1447400972,Delta,N112AQ,289.7,-1.8,-2,,,DJI P3,FC300X,WGS84,64.1564615808,-145.853296906,19.2,81.2,65.5,-70.9,90,0,,,,,,,,,,,,,,,,,,,,,,,,,,,,,,,,,,,,,,,,,,,,,,,,,,,,,,,,,,,,,,,,,,,,,,,,,
,1447400972,Delta,N112AQ,289.6,-3,-1.8,,,DJI P3,FC300X,WGS84,64.1564607404,-145.85329628,19.2,81.2,65.5,-70.9,90,0,,,,,,,,,,,,,,,,,,,,,,,,,,,,,,,,,,,,,,,,,,,,,,,,,,,,,,,,,,,,,,,,,,,,,,,,,
,1447400972,Delta,N112AQ,289.6,-3.7,-1.6,,,DJI P3,FC300X,WGS84,64.1564607128,-145.853296619,19.2,81.2,65.5,-70.9,90,0,,,,,,,,,,,,,,,,,,,,,,,,,,,,,,,,,,,,,,,,,,,,,,,,,,,,,,,,,,,,,,,,,,,,,,,,,
,1447400972,Delta,N112AQ,289.7,-3.8,-1.7,,,DJI P3,FC300X,WGS84,64.1564602888,-145.853295103,19.2,81.2,65.5,-70.8,90,0,,,,,,,,,,,,,,,,,,,,,,,,,,,,,,,,,,,,,,,,,,,,,,,,,,,,,,,,,,,,,,,,,,,,,,,,,
,1447400972,Delta,N112AQ,289.8,-4.4,-2.2,,,DJI P3,FC300X,WGS84,64.1564603252,-145.853295309,19.2,81.2,65.5,-70.4,90,0,,,,,,,,,,,,,,,,,,,,,,,,,,,,,,,,,,,,,,,,,,,,,,,,,,,,,,,,,,,,,,,,,,,,,,,,,
,1447400972,Delta,N112AQ,291.4,-5.1,-3.1,,,DJI P3,FC300X,WGS84,64.1564605509,-145.853295191,19.3,81.2,65.5,-69.8,90,0,,,,,,,,,,,,,,,,,,,,,,,,,,,,,,,,,,,,,,,,,,,,,,,,,,,,,,,,,,,,,,,,,,,,,,,,,
,1447400972,Delta,N112AQ,291.4,-5.1,-3.1,,,DJI P3,FC300X,WGS84,64.1564605509,-145.853295191,19.3,81.2,65.5,-69.2,89.9,0,,,,,,,,,,,,,,,,,,,,,,,,,,,,,,,,,,,,,,,,,,,,,,,,,,,,,,,,,,,,,,,,,,,,,,,,,
,1447400972,Delta,N112AQ,293.8,-4.9,-3.9,,,DJI P3,FC300X,WGS84,64.1564605936,-145.853294602,19.3,81.2,65.5,-68.6,90,0,,,,,,,,,,,,,,,,,,,,,,,,,,,,,,,,,,,,,,,,,,,,,,,,,,,,,,,,,,,,,,,,,,,,,,,,,
,1447400973,Delta,N112AQ,294,-4.7,-4.2,,,DJI P3,FC300X,WGS84,64.1564608711,-145.853294555,19.3,81.2,65.5,-68.5,90,0,,,,,,,,,,,,,,,,,,,,,,,,,,,,,,,,,,,,,,,,,,,,,,,,,,,,,,,,,,,,,,,,,,,,,,,,,
,1447400973,Delta,N112AQ,294.4,-4.7,-4.6,,,DJI P3,FC300X,WGS84,64.1564610061,-145.853294298,19.3,81.2,65.5,-68.4,90,0,,,,,,,,,,,,,,,,,,,,,,,,,,,,,,,,,,,,,,,,,,,,,,,,,,,,,,,,,,,,,,,,,,,,,,,,,
,1447400973,Delta,N112AQ,294.6,-4.3,-4.7,,,DJI P3,FC300X,WGS84,64.156461433,-145.853294608,19.3,81.2,65.5,-68.2,89.9,0,,,,,,,,,,,,,,,,,,,,,,,,,,,,,,,,,,,,,,,,,,,,,,,,,,,,,,,,,,,,,,,,,,,,,,,,,
,1447400973,Delta,N112AQ,295.2,-3.7,-5.3,,,DJI P3,FC300X,WGS84,64.1564616455,-145.853294944,19.3,81.2,65.5,-66.4,90,0,,,,,,,,,,,,,,,,,,,,,,,,,,,,,,,,,,,,,,,,,,,,,,,,,,,,,,,,,,,,,,,,,,,,,,,,,
,1447400973,Delta,N112AQ,297,-3,-5.9,,,DJI P3,FC300X,WGS84,64.1564621901,-145.853294902,19.3,81.2,65.5,-64.8,89.9,0,,,,,,,,,,,,,,,,,,,,,,,,,,,,,,,,,,,,,,,,,,,,,,,,,,,,,,,,,,,,,,,,,,,,,,,,,
,1447400973,Delta,N112AQ,302.8,-1.6,-6.7,,,DJI P3,FC300X,WGS84,64.1564627324,-145.853295768,19.2,81.2,65.5,-62.7,89.9,0,,,,,,,,,,,,,,,,,,,,,,,,,,,,,,,,,,,,,,,,,,,,,,,,,,,,,,,,,,,,,,,,,,,,,,,,,
,1447400973,Delta,N112AQ,306.2,-1.1,-6.8,,,DJI P3,FC300X,WGS84,64.1564631011,-145.853295984,19.2,81.2,65.5,-60.1,89.9,0,,,,,,,,,,,,,,,,,,,,,,,,,,,,,,,,,,,,,,,,,,,,,,,,,,,,,,,,,,,,,,,,,,,,,,,,,
,1447400973,Delta,N112AQ,309.9,-0.4,-6.7,,,DJI P3,FC300X,WGS84,64.1564635349,-145.853296423,19.2,81.2,65.5,-56.9,89.9,0,,,,,,,,,,,,,,,,,,,,,,,,,,,,,,,,,,,,,,,,,,,,,,,,,,,,,,,,,,,,,,,,,,,,,,,,,
,1447400973,Delta,N112AQ,313.9,0.1,-6.7,,,DJI P3,FC300X,WGS84,64.156463695,-145.853296875,19.2,81.2,65.5,-53.5,90,0,,,,,,,,,,,,,,,,,,,,,,,,,,,,,,,,,,,,,,,,,,,,,,,,,,,,,,,,,,,,,,,,,,,,,,,,,
,1447400973,Delta,N112AQ,317.6,0.5,-6.5,,,DJI P3,FC300X,WGS84,64.1564641683,-145.853297416,19.2,81.2,65.5,-46.2,89.9,0,,,,,,,,,,,,,,,,,,,,,,,,,,,,,,,,,,,,,,,,,,,,,,,,,,,,,,,,,,,,,,,,,,,,,,,,,
,1447400974,Delta,N112AQ,321.2,1.5,-6.1,,,DJI P3,FC300X,WGS84,64.1564642898,-145.853297924,19.2,81.2,65.5,-42.6,90,0,,,,,,,,,,,,,,,,,,,,,,,,,,,,,,,,,,,,,,,,,,,,,,,,,,,,,,,,,,,,,,,,,,,,,,,,,
,1447400974,Delta,N112AQ,324.7,1.7,-5.4,,,DJI P3,FC300X,WGS84,64.156464591,-145.853298631,19.2,81.2,65.5,-39.1,89.9,0,,,,,,,,,,,,,,,,,,,,,,,,,,,,,,,,,,,,,,,,,,,,,,,,,,,,,,,,,,,,,,,,,,,,,,,,,
,1447400974,Delta,N112AQ,331,2.5,-4.6,,,DJI P3,FC300X,WGS84,64.1564650851,-145.853299946,19.2,81.2,65.5,-36,90,0,,,,,,,,,,,,,,,,,,,,,,,,,,,,,,,,,,,,,,,,,,,,,,,,,,,,,,,,,,,,,,,,,,,,,,,,,
,1447400974,Delta,N112AQ,333.7,3,-4.1,,,DJI P3,FC300X,WGS84,64.1564651771,-145.853300435,19.2,81.2,65.5,-33,89.9,0,,,,,,,,,,,,,,,,,,,,,,,,,,,,,,,,,,,,,,,,,,,,,,,,,,,,,,,,,,,,,,,,,,,,,,,,,
,1447400974,Delta,N112AQ,336.4,3.2,-3.8,,,DJI P3,FC300X,WGS84,64.1564655839,-145.853301166,19.2,81.2,65.5,-30.2,90,0,,,,,,,,,,,,,,,,,,,,,,,,,,,,,,,,,,,,,,,,,,,,,,,,,,,,,,,,,,,,,,,,,,,,,,,,,
,1447400974,Delta,N112AQ,339,3.7,-3.4,,,DJI P3,FC300X,WGS84,64.1564656538,-145.853301603,19.2,81.2,65.5,-24.7,89.9,0,,,,,,,,,,,,,,,,,,,,,,,,,,,,,,,,,,,,,,,,,,,,,,,,,,,,,,,,,,,,,,,,,,,,,,,,,
,1447400975,Delta,N112AQ,341.8,3.7,-2.9,,,DJI P3,FC300X,WGS84,64.1564657835,-145.853302022,19.2,81.2,65.5,-22,89.9,0,,,,,,,,,,,,,,,,,,,,,,,,,,,,,,,,,,,,,,,,,,,,,,,,,,,,,,,,,,,,,,,,,,,,,,,,,
,1447400975,Delta,N112AQ,344.5,4,-2.5,,,DJI P3,FC300X,WGS84,64.1564660056,-145.853302545,19.3,81.2,65.5,-19.3,89.9,0,,,,,,,,,,,,,,,,,,,,,,,,,,,,,,,,,,,,,,,,,,,,,,,,,,,,,,,,,,,,,,,,,,,,,,,,,
,1447400975,Delta,N112AQ,350.1,3.8,-2,,,DJI P3,FC300X,WGS84,64.1564660879,-145.85330299,19.3,81.2,65.5,-16.6,89.9,0,,,,,,,,,,,,,,,,,,,,,,,,,,,,,,,,,,,,,,,,,,,,,,,,,,,,,,,,,,,,,,,,,,,,,,,,,
,1447400975,Delta,N112AQ,352.9,3.6,-1.8,,,DJI P3,FC300X,WGS84,64.1564663253,-145.853303257,19.3,81.2,65.5,-13.8,90,0,,,,,,,,,,,,,,,,,,,,,,,,,,,,,,,,,,,,,,,,,,,,,,,,,,,,,,,,,,,,,,,,,,,,,,,,,
,1447400975,Delta,N112AQ,355.7,3.7,-1.6,,,DJI P3,FC300X,WGS84,64.156466331,-145.853303432,19.3,81.2,65.5,-11.1,89.9,0,,,,,,,,,,,,,,,,,,,,,,,,,,,,,,,,,,,,,,,,,,,,,,,,,,,,,,,,,,,,,,,,,,,,,,,,,
,1447400975,Delta,N112AQ,358.3,3.6,-1.4,,,DJI P3,FC300X,WGS84,64.1564663598,-145.853303513,19.3,81.2,65.5,-5.8,89.9,0,,,,,,,,,,,,,,,,,,,,,,,,,,,,,,,,,,,,,,,,,,,,,,,,,,,,,,,,,,,,,,,,,,,,,,,,,
,1447400975,Delta,N112AQ,0.8,3.7,-1.1,,,DJI P3,FC300X,WGS84,64.1564664799,-145.853303685,19.3,81.2,65.5,-3.3,90,0,,,,,,,,,,,,,,,,,,,,,,,,,,,,,,,,,,,,,,,,,,,,,,,,,,,,,,,,,,,,,,,,,,,,,,,,,
,1447400975,Delta,N112AQ,5.4,3.9,-1,,,DJI P3,FC300X,WGS84,64.1564665184,-145.853303352,19.3,81.2,65.5,-1,90,0,,,,,,,,,,,,,,,,,,,,,,,,,,,,,,,,,,,,,,,,,,,,,,,,,,,,,,,,,,,,,,,,,,,,,,,,,
,1447400975,Delta,N112AQ,7.4,4,-1.1,,,DJI P3,FC300X,WGS84,64.1564664387,-145.853303111,19.3,81.2,65.5,1.1,90,0,,,,,,,,,,,,,,,,,,,,,,,,,,,,,,,,,,,,,,,,,,,,,,,,,,,,,,,,,,,,,,,,,,,,,,,,,
,1447400976,Delta,N112AQ,9.5,3.9,-1.3,,,DJI P3,FC300X,WGS84,64.156466487,-145.85330296,19.3,81.2,65.5,3.2,89.9,0,,,,,,,,,,,,,,,,,,,,,,,,,,,,,,,,,,,,,,,,,,,,,,,,,,,,,,,,,,,,,,,,,,,,,,,,,
,1447400976,Delta,N112AQ,11.4,3.9,-1.4,,,DJI P3,FC300X,WGS84,64.1564665328,-145.853302574,19.3,81.2,65.5,5.3,90,0,,,,,,,,,,,,,,,,,,,,,,,,,,,,,,,,,,,,,,,,,,,,,,,,,,,,,,,,,,,,,,,,,,,,,,,,,
,1447400976,Delta,N112AQ,13.2,4,-1.6,,,DJI P3,FC300X,WGS84,64.1564664779,-145.853302501,19.3,81.2,65.5,9.2,90,0,,,,,,,,,,,,,,,,,,,,,,,,,,,,,,,,,,,,,,,,,,,,,,,,,,,,,,,,,,,,,,,,,,,,,,,,,
,1447400976,Delta,N112AQ,15,4.1,-1.6,,,DJI P3,FC300X,WGS84,64.1564667075,-145.853301579,19.2,81.2,65.5,11,89.9,0,,,,,,,,,,,,,,,,,,,,,,,,,,,,,,,,,,,,,,,,,,,,,,,,,,,,,,,,,,,,,,,,,,,,,,,,,
,1447400976,Delta,N112AQ,18.4,4.4,-1.9,,,DJI P3,FC300X,WGS84,64.1564665841,-145.85330073,19.2,81.2,65.5,12.8,89.9,0,,,,,,,,,,,,,,,,,,,,,,,,,,,,,,,,,,,,,,,,,,,,,,,,,,,,,,,,,,,,,,,,,,,,,,,,,
,1447400976,Delta,N112AQ,20,4.4,-2,,,DJI P3,FC300X,WGS84,64.1564666501,-145.853300232,19.2,81.2,65.5,14.5,89.9,0,,,,,,,,,,,,,,,,,,,,,,,,,,,,,,,,,,,,,,,,,,,,,,,,,,,,,,,,,,,,,,,,,,,,,,,,,
,1447400976,Delta,N112AQ,21.4,4.4,-2.2,,,DJI P3,FC300X,WGS84,64.1564666064,-145.85329958,19.1,81.2,65.5,16.1,89.9,0,,,,,,,,,,,,,,,,,,,,,,,,,,,,,,,,,,,,,,,,,,,,,,,,,,,,,,,,,,,,,,,,,,,,,,,,,
,1447400977,Delta,N112AQ,22.8,4.6,-2.3,,,DJI P3,FC300X,WGS84,64.1564665185,-145.853299292,19.1,81.2,65.5,19.1,89.9,0,,,,,,,,,,,,,,,,,,,,,,,,,,,,,,,,,,,,,,,,,,,,,,,,,,,,,,,,,,,,,,,,,,,,,,,,,
,1447400977,Delta,N112AQ,24.3,4.6,-2.3,,,DJI P3,FC300X,WGS84,64.1564665716,-145.853298406,19.1,81.2,65.5,20.6,89.9,0,,,,,,,,,,,,,,,,,,,,,,,,,,,,,,,,,,,,,,,,,,,,,,,,,,,,,,,,,,,,,,,,,,,,,,,,,
,1447400977,Delta,N112AQ,25.7,4.7,-2.3,,,DJI P3,FC300X,WGS84,64.1564664747,-145.853298153,19.1,81.2,65.5,22.1,89.9,0,,,,,,,,,,,,,,,,,,,,,,,,,,,,,,,,,,,,,,,,,,,,,,,,,,,,,,,,,,,,,,,,,,,,,,,,,
,1447400977,Delta,N112AQ,28.3,4.8,-2.2,,,DJI P3,FC300X,WGS84,64.1564663819,-145.853297225,19.1,81.2,65.5,23.4,90,0,,,,,,,,,,,,,,,,,,,,,,,,,,,,,,,,,,,,,,,,,,,,,,,,,,,,,,,,,,,,,,,,,,,,,,,,,
,1447400977,Delta,N112AQ,29.9,4.7,-2.2,,,DJI P3,FC300X,WGS84,64.1564662545,-145.853296673,19,81.2,65.5,25.3,90,0,,,,,,,,,,,,,,,,,,,,,,,,,,,,,,,,,,,,,,,,,,,,,,,,,,,,,,,,,,,,,,,,,,,,,,,,,
,1447400977,Delta,N112AQ,30.1,4.4,-2.1,,,DJI P3,FC300X,WGS84,64.1564662563,-145.853295928,18.9,81.2,65.5,25.8,90,0,,,,,,,,,,,,,,,,,,,,,,,,,,,,,,,,,,,,,,,,,,,,,,,,,,,,,,,,,,,,,,,,,,,,,,,,,
,1447400977,Delta,N112AQ,30.3,4.5,-2.2,,,DJI P3,FC300X,WGS84,64.1564661236,-145.853295834,18.9,81.2,65.5,26.7,89.9,0,,,,,,,,,,,,,,,,,,,,,,,,,,,,,,,,,,,,,,,,,,,,,,,,,,,,,,,,,,,,,,,,,,,,,,,,,
,1447400977,Delta,N112AQ,30.4,4.5,-2,,,DJI P3,FC300X,WGS84,64.156466158,-145.853295591,18.9,81.2,65.5,27,90,0,,,,,,,,,,,,,,,,,,,,,,,,,,,,,,,,,,,,,,,,,,,,,,,,,,,,,,,,,,,,,,,,,,,,,,,,,
,1447400978,Delta,N112AQ,30.6,4.8,-2,,,DJI P3,FC300X,WGS84,64.1564661619,-145.853295065,18.9,81.2,65.5,27.3,90,0,,,,,,,,,,,,,,,,,,,,,,,,,,,,,,,,,,,,,,,,,,,,,,,,,,,,,,,,,,,,,,,,,,,,,,,,,
,1447400978,Delta,N112AQ,30.9,2.2,-2.5,,,DJI P3,FC300X,WGS84,64.1564658443,-145.853294868,18.8,81.2,65.5,27.6,90,0,,,,,,,,,,,,,,,,,,,,,,,,,,,,,,,,,,,,,,,,,,,,,,,,,,,,,,,,,,,,,,,,,,,,,,,,,
,1447400978,Delta,N112AQ,31.1,-0.5,-2.7,,,DJI P3,FC300X,WGS84,64.1564659527,-145.853294287,18.8,81.2,65.5,27.9,90,0,,,,,,,,,,,,,,,,,,,,,,,,,,,,,,,,,,,,,,,,,,,,,,,,,,,,,,,,,,,,,,,,,,,,,,,,,
,1447400978,Delta,N112AQ,31.2,-3,-2.8,,,DJI P3,FC300X,WGS84,64.1564659346,-145.853294223,18.8,81.2,65.5,28.1,90,0,,,,,,,,,,,,,,,,,,,,,,,,,,,,,,,,,,,,,,,,,,,,,,,,,,,,,,,,,,,,,,,,,,,,,,,,,
,1447400978,Delta,N112AQ,31.4,-4.6,-2.7,,,DJI P3,FC300X,WGS84,64.1564661273,-145.853293965,18.8,81.2,65.5,28.5,90,0,,,,,,,,,,,,,,,,,,,,,,,,,,,,,,,,,,,,,,,,,,,,,,,,,,,,,,,,,,,,,,,,,,,,,,,,,
,1447400978,Delta,N112AQ,31.5,-5.3,-2.4,,,DJI P3,FC300X,WGS84,64.156466479,-145.85329349,18.8,81.2,65.5,28.7,90,0,,,,,,,,,,,,,,,,,,,,,,,,,,,,,,,,,,,,,,,,,,,,,,,,,,,,,,,,,,,,,,,,,,,,,,,,,
,1447400978,Delta,N112AQ,31.6,-4.3,-2.5,,,DJI P3,FC300X,WGS84,64.1564671476,-145.853292397,18.8,81.2,65.5,28.8,89.9,0,,,,,,,,,,,,,,,,,,,,,,,,,,,,,,,,,,,,,,,,,,,,,,,,,,,,,,,,,,,,,,,,,,,,,,,,,
,1447400978,Delta,N112AQ,31.4,-0.4,-2.4,,,DJI P3,FC300X,WGS84,64.1564677789,-145.853291201,18.8,81.2,65.5,29,89.9,0,,,,,,,,,,,,,,,,,,,,,,,,,,,,,,,,,,,,,,,,,,,,,,,,,,,,,,,,,,,,,,,,,,,,,,,,,
,1447400979,Delta,N112AQ,31.3,2.4,-2.3,,,DJI P3,FC300X,WGS84,64.1564682925,-145.8532906,18.8,81.2,65.5,29.1,90,0,,,,,,,,,,,,,,,,,,,,,,,,,,,,,,,,,,,,,,,,,,,,,,,,,,,,,,,,,,,,,,,,,,,,,,,,,
,1447400979,Delta,N112AQ,31.3,3.9,-2.2,,,DJI P3,FC300X,WGS84,64.1564689803,-145.853289525,18.7,81.2,65.5,29.3,89.9,0,,,,,,,,,,,,,,,,,,,,,,,,,,,,,,,,,,,,,,,,,,,,,,,,,,,,,,,,,,,,,,,,,,,,,,,,,
,1447400979,Delta,N112AQ,31.4,4.7,-2.2,,,DJI P3,FC300X,WGS84,64.1564694694,-145.853288949,18.7,81.2,65.5,29.5,89.6,0,,,,,,,,,,,,,,,,,,,,,,,,,,,,,,,,,,,,,,,,,,,,,,,,,,,,,,,,,,,,,,,,,,,,,,,,,
,1447400979,Delta,N112AQ,31.3,5.3,-2.2,,,DJI P3,FC300X,WGS84,64.1564700133,-145.853287599,18.7,81.2,65.5,29.5,89.6,0,,,,,,,,,,,,,,,,,,,,,,,,,,,,,,,,,,,,,,,,,,,,,,,,,,,,,,,,,,,,,,,,,,,,,,,,,
,1447400979,Delta,N112AQ,31.3,5.3,-2.2,,,DJI P3,FC300X,WGS84,64.1564700133,-145.853287599,18.7,81.2,65.5,29.6,88.3,0,,,,,,,,,,,,,,,,,,,,,,,,,,,,,,,,,,,,,,,,,,,,,,,,,,,,,,,,,,,,,,,,,,,,,,,,,
,1447400979,Delta,N112AQ,31.4,6.6,-2,,,DJI P3,FC300X,WGS84,64.1564700133,-145.853287599,18.7,81.2,65.5,29.7,86.9,0,,,,,,,,,,,,,,,,,,,,,,,,,,,,,,,,,,,,,,,,,,,,,,,,,,,,,,,,,,,,,,,,,,,,,,,,,
,1447400979,Delta,N112AQ,31.4,7.2,-2,,,DJI P3,FC300X,WGS84,64.1564700133,-145.853287599,18.7,81.2,65.5,29.8,85.6,0,,,,,,,,,,,,,,,,,,,,,,,,,,,,,,,,,,,,,,,,,,,,,,,,,,,,,,,,,,,,,,,,,,,,,,,,,
,1447400979,Delta,N112AQ,31.4,7.4,-1.7,,,DJI P3,FC300X,WGS84,64.1564700133,-145.853287599,18.7,81.2,65.5,29.8,84.3,0,,,,,,,,,,,,,,,,,,,,,,,,,,,,,,,,,,,,,,,,,,,,,,,,,,,,,,,,,,,,,,,,,,,,,,,,,
,1447400980,Delta,N112AQ,31.4,7.6,-1.6,,,DJI P3,FC300X,WGS84,64.1564700133,-145.853287599,18.7,81.2,65.5,30,81.6,0,,,,,,,,,,,,,,,,,,,,,,,,,,,,,,,,,,,,,,,,,,,,,,,,,,,,,,,,,,,,,,,,,,,,,,,,,
,1447400980,Delta,N112AQ,31.4,7.1,-1.4,,,DJI P3,FC300X,WGS84,64.1564700133,-145.853287599,18.7,81.2,65.5,30,80.3,0,,,,,,,,,,,,,,,,,,,,,,,,,,,,,,,,,,,,,,,,,,,,,,,,,,,,,,,,,,,,,,,,,,,,,,,,,
,1447400980,Delta,N112AQ,31.4,6.6,-1.3,,,DJI P3,FC300X,WGS84,64.1564700133,-145.853287599,18.7,81.2,65.5,30.1,79,0,,,,,,,,,,,,,,,,,,,,,,,,,,,,,,,,,,,,,,,,,,,,,,,,,,,,,,,,,,,,,,,,,,,,,,,,,
,1447400980,Delta,N112AQ,31.4,6.2,-1.3,,,DJI P3,FC300X,WGS84,64.1564700133,-145.853287599,18.8,81.2,65.5,30.1,79,0,,,,,,,,,,,,,,,,,,,,,,,,,,,,,,,,,,,,,,,,,,,,,,,,,,,,,,,,,,,,,,,,,,,,,,,,,
,1447400980,Delta,N112AQ,31.4,5.9,-1.3,,,DJI P3,FC300X,WGS84,64.1564700133,-145.853287599,18.8,81.2,65.5,30.1,77.7,0,,,,,,,,,,,,,,,,,,,,,,,,,,,,,,,,,,,,,,,,,,,,,,,,,,,,,,,,,,,,,,,,,,,,,,,,,
,1447400980,Delta,N112AQ,31.5,5.7,-1.4,,,DJI P3,FC300X,WGS84,64.1564700133,-145.853287599,18.8,81.2,65.5,30.2,76.4,0,,,,,,,,,,,,,,,,,,,,,,,,,,,,,,,,,,,,,,,,,,,,,,,,,,,,,,,,,,,,,,,,,,,,,,,,,
,1447400980,Delta,N112AQ,31.5,5.8,-1.4,,,DJI P3,FC300X,WGS84,64.1564700133,-145.853287599,18.8,81.2,65.5,30.2,75,0,,,,,,,,,,,,,,,,,,,,,,,,,,,,,,,,,,,,,,,,,,,,,,,,,,,,,,,,,,,,,,,,,,,,,,,,,
,1447400980,Delta,N112AQ,31.6,5.5,-1.1,,,DJI P3,FC300X,WGS84,64.1564700133,-145.853287599,18.9,81.2,65.5,30.3,72.4,0,,,,,,,,,,,,,,,,,,,,,,,,,,,,,,,,,,,,,,,,,,,,,,,,,,,,,,,,,,,,,,,,,,,,,,,,,
,1447400980,Delta,N112AQ,31.6,5.4,-0.9,,,DJI P3,FC300X,WGS84,64.1564700133,-145.853287599,18.9,81.2,65.5,30.4,71.1,0,,,,,,,,,,,,,,,,,,,,,,,,,,,,,,,,,,,,,,,,,,,,,,,,,,,,,,,,,,,,,,,,,,,,,,,,,
,1447400981,Delta,N112AQ,31.7,4.7,-1,,,DJI P3,FC300X,WGS84,64.1564700133,-145.853287599,18.9,81.2,65.5,30.4,69.7,0,,,,,,,,,,,,,,,,,,,,,,,,,,,,,,,,,,,,,,,,,,,,,,,,,,,,,,,,,,,,,,,,,,,,,,,,,
,1447400981,Delta,N112AQ,31.7,4.4,-0.9,,,DJI P3,FC300X,WGS84,64.1564700133,-145.853287599,18.9,81.2,65.5,30.5,68.4,0,,,,,,,,,,,,,,,,,,,,,,,,,,,,,,,,,,,,,,,,,,,,,,,,,,,,,,,,,,,,,,,,,,,,,,,,,
,1447400981,Delta,N112AQ,31.7,4.3,-0.9,,,DJI P3,FC300X,WGS84,64.1564700133,-145.853287599,18.9,81.2,65.5,30.5,67.1,0,,,,,,,,,,,,,,,,,,,,,,,,,,,,,,,,,,,,,,,,,,,,,,,,,,,,,,,,,,,,,,,,,,,,,,,,,
,1447400981,Delta,N112AQ,31.7,4,-1,,,DJI P3,FC300X,WGS84,64.1564700133,-145.853287599,18.9,81.2,65.5,30.5,65.8,0,,,,,,,,,,,,,,,,,,,,,,,,,,,,,,,,,,,,,,,,,,,,,,,,,,,,,,,,,,,,,,,,,,,,,,,,,
,1447400981,Delta,N112AQ,31.6,3.9,-1,,,DJI P3,FC300X,WGS84,64.1564700133,-145.853287599,18.9,81.2,65.5,30.6,63.1,0,,,,,,,,,,,,,,,,,,,,,,,,,,,,,,,,,,,,,,,,,,,,,,,,,,,,,,,,,,,,,,,,,,,,,,,,,
,1447400981,Delta,N112AQ,31.7,3.6,-1.1,,,DJI P3,FC300X,WGS84,64.1564700133,-145.853287599,18.9,81.2,65.5,30.6,61.8,0,,,,,,,,,,,,,,,,,,,,,,,,,,,,,,,,,,,,,,,,,,,,,,,,,,,,,,,,,,,,,,,,,,,,,,,,,
,1447400981,Delta,N112AQ,31.7,3.5,-1.2,,,DJI P3,FC300X,WGS84,64.1564700133,-145.853287599,18.9,81.2,65.5,30.7,60.5,0,,,,,,,,,,,,,,,,,,,,,,,,,,,,,,,,,,,,,,,,,,,,,,,,,,,,,,,,,,,,,,,,,,,,,,,,,
,1447400981,Delta,N112AQ,31.6,3.4,-1.2,,,DJI P3,FC300X,WGS84,64.1564700133,-145.853287599,18.9,81.2,65.5,30.7,59.1,0,,,,,,,,,,,,,,,,,,,,,,,,,,,,,,,,,,,,,,,,,,,,,,,,,,,,,,,,,,,,,,,,,,,,,,,,,
,1447400981,Delta,N112AQ,31.6,3.3,-1.4,,,DJI P3,FC300X,WGS84,64.1564700133,-145.853287599,18.9,81.2,65.5,30.7,57.8,0,,,,,,,,,,,,,,,,,,,,,,,,,,,,,,,,,,,,,,,,,,,,,,,,,,,,,,,,,,,,,,,,,,,,,,,,,
,1447400982,Delta,N112AQ,31.5,3.2,-1.4,,,DJI P3,FC300X,WGS84,64.1564700133,-145.853287599,18.9,81.2,65.5,30.7,56.7,0,,,,,,,,,,,,,,,,,,,,,,,,,,,,,,,,,,,,,,,,,,,,,,,,,,,,,,,,,,,,,,,,,,,,,,,,,
,1447400982,Delta,N112AQ,31.5,3.2,-1.4,,,DJI P3,FC300X,WGS84,64.1564700133,-145.853287599,18.9,81.2,65.5,30.8,54.5,0,,,,,,,,,,,,,,,,,,,,,,,,,,,,,,,,,,,,,,,,,,,,,,,,,,,,,,,,,,,,,,,,,,,,,,,,,
,1447400982,Delta,N112AQ,31.3,3.3,-1.4,,,DJI P3,FC300X,WGS84,64.1564700133,-145.853287599,18.9,81.2,65.5,30.8,54.2,0,,,,,,,,,,,,,,,,,,,,,,,,,,,,,,,,,,,,,,,,,,,,,,,,,,,,,,,,,,,,,,,,,,,,,,,,,
,1447400982,Delta,N112AQ,31.2,3,-1.5,,,DJI P3,FC300X,WGS84,64.1564700133,-145.853287599,18.9,81.2,65.5,30.8,54.2,0,,,,,,,,,,,,,,,,,,,,,,,,,,,,,,,,,,,,,,,,,,,,,,,,,,,,,,,,,,,,,,,,,,,,,,,,,
,1447400982,Delta,N112AQ,31.2,3,-1.5,,,DJI P3,FC300X,WGS84,64.1564700133,-145.853287599,18.9,81.2,65.5,30.8,54.2,0,,,,,,,,,,,,,,,,,,,,,,,,,,,,,,,,,,,,,,,,,,,,,,,,,,,,,,,,,,,,,,,,,,,,,,,,,
,1447400982,Delta,N112AQ,31.2,3.1,-1.6,,,DJI P3,FC300X,WGS84,64.1564700133,-145.853287599,18.9,81.2,65.5,30.8,54.2,0,,,,,,,,,,,,,,,,,,,,,,,,,,,,,,,,,,,,,,,,,,,,,,,,,,,,,,,,,,,,,,,,,,,,,,,,,
,1447400982,Delta,N112AQ,31.2,3.1,-1.7,,,DJI P3,FC300X,WGS84,64.1564700133,-145.853287599,18.9,81.2,65.5,30.8,54.2,0,,,,,,,,,,,,,,,,,,,,,,,,,,,,,,,,,,,,,,,,,,,,,,,,,,,,,,,,,,,,,,,,,,,,,,,,,
,1447400982,Delta,N112AQ,31.2,3.1,-1.7,,,DJI P3,FC300X,WGS84,64.1564700133,-145.853287599,18.9,81.2,65.5,30.8,54.2,0,,,,,,,,,,,,,,,,,,,,,,,,,,,,,,,,,,,,,,,,,,,,,,,,,,,,,,,,,,,,,,,,,,,,,,,,,
,1447400983,Delta,N112AQ,31.3,3.4,-1.6,,,DJI P3,FC300X,WGS84,64.1564700133,-145.853287599,18.9,81.2,65.5,30.8,54.2,0,,,,,,,,,,,,,,,,,,,,,,,,,,,,,,,,,,,,,,,,,,,,,,,,,,,,,,,,,,,,,,,,,,,,,,,,,
,1447400983,Delta,N112AQ,31.3,3.5,-1.6,,,DJI P3,FC300X,WGS84,64.1564700133,-145.853287599,18.9,81.2,65.5,30.8,54,0,,,,,,,,,,,,,,,,,,,,,,,,,,,,,,,,,,,,,,,,,,,,,,,,,,,,,,,,,,,,,,,,,,,,,,,,,
,1447400983,Delta,N112AQ,31.3,3.6,-1.6,,,DJI P3,FC300X,WGS84,64.1564700133,-145.853287599,18.9,81.2,65.5,30.8,53.8,0,,,,,,,,,,,,,,,,,,,,,,,,,,,,,,,,,,,,,,,,,,,,,,,,,,,,,,,,,,,,,,,,,,,,,,,,,
,1447400983,Delta,N112AQ,31.3,3.7,-1.6,,,DJI P3,FC300X,WGS84,64.1564700133,-145.853287599,18.9,81.2,65.5,30.8,53.5,0,,,,,,,,,,,,,,,,,,,,,,,,,,,,,,,,,,,,,,,,,,,,,,,,,,,,,,,,,,,,,,,,,,,,,,,,,
,1447400983,Delta,N112AQ,31.2,3.7,-1.5,,,DJI P3,FC300X,WGS84,64.1564700133,-145.853287599,18.9,81.2,65.5,30.9,53.1,0,,,,,,,,,,,,,,,,,,,,,,,,,,,,,,,,,,,,,,,,,,,,,,,,,,,,,,,,,,,,,,,,,,,,,,,,,
,1447400983,Delta,N112AQ,31.2,3.7,-1.5,,,DJI P3,FC300X,WGS84,64.1564700133,-145.853287599,18.9,81.2,65.5,30.9,52.5,0,,,,,,,,,,,,,,,,,,,,,,,,,,,,,,,,,,,,,,,,,,,,,,,,,,,,,,,,,,,,,,,,,,,,,,,,,
,1447400983,Delta,N112AQ,31.2,3.8,-1.5,,,DJI P3,FC300X,WGS84,64.1564700133,-145.853287599,18.9,81.2,65.5,30.9,52.2,0,,,,,,,,,,,,,,,,,,,,,,,,,,,,,,,,,,,,,,,,,,,,,,,,,,,,,,,,,,,,,,,,,,,,,,,,,
,1447400983,Delta,N112AQ,31.3,3.7,-1.4,,,DJI P3,FC300X,WGS84,64.1564700133,-145.853287599,18.9,81.2,65.5,30.9,51.8,0,,,,,,,,,,,,,,,,,,,,,,,,,,,,,,,,,,,,,,,,,,,,,,,,,,,,,,,,,,,,,,,,,,,,,,,,,
,1447400983,Delta,N112AQ,31.4,3.7,-1.4,,,DJI P3,FC300X,WGS84,64.1564700133,-145.853287599,18.9,81.2,65.5,30.9,51.4,0,,,,,,,,,,,,,,,,,,,,,,,,,,,,,,,,,,,,,,,,,,,,,,,,,,,,,,,,,,,,,,,,,,,,,,,,,
,1447400984,Delta,N112AQ,31.4,3.9,-1.4,,,DJI P3,FC300X,WGS84,64.1564700133,-145.853287599,18.9,81.2,65.5,30.9,50.8,0,,,,,,,,,,,,,,,,,,,,,,,,,,,,,,,,,,,,,,,,,,,,,,,,,,,,,,,,,,,,,,,,,,,,,,,,,
,1447400984,Delta,N112AQ,31.4,3.9,-1.4,,,DJI P3,FC300X,WGS84,64.1564700133,-145.853287599,18.9,81.2,65.5,30.9,49.9,0,,,,,,,,,,,,,,,,,,,,,,,,,,,,,,,,,,,,,,,,,,,,,,,,,,,,,,,,,,,,,,,,,,,,,,,,,
,1447400984,Delta,N112AQ,31.4,3.9,-1.2,,,DJI P3,FC300X,WGS84,64.1564700133,-145.853287599,18.9,81.2,65.5,30.9,48.8,0,,,,,,,,,,,,,,,,,,,,,,,,,,,,,,,,,,,,,,,,,,,,,,,,,,,,,,,,,,,,,,,,,,,,,,,,,
,1447400984,Delta,N112AQ,31.4,3.7,-1.2,,,DJI P3,FC300X,WGS84,64.1564700133,-145.853287599,18.9,81.2,65.5,30.9,46.6,0,,,,,,,,,,,,,,,,,,,,,,,,,,,,,,,,,,,,,,,,,,,,,,,,,,,,,,,,,,,,,,,,,,,,,,,,,
,1447400984,Delta,N112AQ,31.4,3.8,-1.2,,,DJI P3,FC300X,WGS84,64.1564700133,-145.853287599,18.9,81.2,65.5,30.9,45.5,0,,,,,,,,,,,,,,,,,,,,,,,,,,,,,,,,,,,,,,,,,,,,,,,,,,,,,,,,,,,,,,,,,,,,,,,,,
,1447400984,Delta,N112AQ,31.5,3.9,-1.4,,,DJI P3,FC300X,WGS84,64.1564700133,-145.853287599,18.9,81.2,65.5,30.9,44.3,0,,,,,,,,,,,,,,,,,,,,,,,,,,,,,,,,,,,,,,,,,,,,,,,,,,,,,,,,,,,,,,,,,,,,,,,,,
,1447400984,Delta,N112AQ,31.5,3.8,-1.5,,,DJI P3,FC300X,WGS84,64.1564700133,-145.853287599,18.9,81.2,65.5,31,43.1,0,,,,,,,,,,,,,,,,,,,,,,,,,,,,,,,,,,,,,,,,,,,,,,,,,,,,,,,,,,,,,,,,,,,,,,,,,
,1447400984,Delta,N112AQ,31.5,3.8,-1.6,,,DJI P3,FC300X,WGS84,64.1564700133,-145.853287599,18.9,81.2,65.5,31,42,0,,,,,,,,,,,,,,,,,,,,,,,,,,,,,,,,,,,,,,,,,,,,,,,,,,,,,,,,,,,,,,,,,,,,,,,,,
,1447400984,Delta,N112AQ,31.4,3.8,-1.7,,,DJI P3,FC300X,WGS84,64.1564700133,-145.853287599,18.9,81.2,65.5,31,39.6,0,,,,,,,,,,,,,,,,,,,,,,,,,,,,,,,,,,,,,,,,,,,,,,,,,,,,,,,,,,,,,,,,,,,,,,,,,
,1447400985,Delta,N112AQ,31.3,3.7,-1.6,,,DJI P3,FC300X,WGS84,64.1564700133,-145.853287599,18.9,81.2,65.5,31,38.4,0,,,,,,,,,,,,,,,,,,,,,,,,,,,,,,,,,,,,,,,,,,,,,,,,,,,,,,,,,,,,,,,,,,,,,,,,,
,1447400985,Delta,N112AQ,31.3,3.5,-1.5,,,DJI P3,FC300X,WGS84,64.1564700133,-145.853287599,18.8,81.2,65.5,31,37.2,0,,,,,,,,,,,,,,,,,,,,,,,,,,,,,,,,,,,,,,,,,,,,,,,,,,,,,,,,,,,,,,,,,,,,,,,,,
,1447400985,Delta,N112AQ,31.3,3.4,-1.4,,,DJI P3,FC300X,WGS84,64.1564700133,-145.853287599,18.8,81.2,65.5,31,36,0,,,,,,,,,,,,,,,,,,,,,,,,,,,,,,,,,,,,,,,,,,,,,,,,,,,,,,,,,,,,,,,,,,,,,,,,,
,1447400985,Delta,N112AQ,31.3,3.5,-1.4,,,DJI P3,FC300X,WGS84,64.1564700133,-145.853287599,18.9,81.2,65.5,31,34.8,0,,,,,,,,,,,,,,,,,,,,,,,,,,,,,,,,,,,,,,,,,,,,,,,,,,,,,,,,,,,,,,,,,,,,,,,,,
,1447400985,Delta,N112AQ,31.2,3.7,-1.3,,,DJI P3,FC300X,WGS84,64.1564700133,-145.853287599,18.9,81.2,65.5,31,33.6,0,,,,,,,,,,,,,,,,,,,,,,,,,,,,,,,,,,,,,,,,,,,,,,,,,,,,,,,,,,,,,,,,,,,,,,,,,
,1447400985,Delta,N112AQ,31.2,3.6,-1.1,,,DJI P3,FC300X,WGS84,64.1564700133,-145.853287599,18.9,81.2,65.5,31,31.2,0,,,,,,,,,,,,,,,,,,,,,,,,,,,,,,,,,,,,,,,,,,,,,,,,,,,,,,,,,,,,,,,,,,,,,,,,,
,1447400985,Delta,N112AQ,31.2,3.8,-1,,,DJI P3,FC300X,WGS84,64.1564700133,-145.853287599,18.9,81.2,65.5,31,30,0,,,,,,,,,,,,,,,,,,,,,,,,,,,,,,,,,,,,,,,,,,,,,,,,,,,,,,,,,,,,,,,,,,,,,,,,,
,1447400985,Delta,N112AQ,31.2,3.7,-0.9,,,DJI P3,FC300X,WGS84,64.1564700133,-145.853287599,18.9,81.2,65.5,31,28.8,0,,,,,,,,,,,,,,,,,,,,,,,,,,,,,,,,,,,,,,,,,,,,,,,,,,,,,,,,,,,,,,,,,,,,,,,,,
,1447400986,Delta,N112AQ,31.2,3.6,-0.9,,,DJI P3,FC300X,WGS84,64.1564700133,-145.853287599,18.9,81.2,65.5,31,27.6,0,,,,,,,,,,,,,,,,,,,,,,,,,,,,,,,,,,,,,,,,,,,,,,,,,,,,,,,,,,,,,,,,,,,,,,,,,
,1447400986,Delta,N112AQ,31.2,3.4,-1,,,DJI P3,FC300X,WGS84,64.1564700133,-145.853287599,18.9,81.2,65.5,31,26.4,0,,,,,,,,,,,,,,,,,,,,,,,,,,,,,,,,,,,,,,,,,,,,,,,,,,,,,,,,,,,,,,,,,,,,,,,,,
,1447400986,Delta,N112AQ,31.2,3.5,-1.1,,,DJI P3,FC300X,WGS84,64.1564700133,-145.853287599,18.9,81.2,65.5,31,25.2,0,,,,,,,,,,,,,,,,,,,,,,,,,,,,,,,,,,,,,,,,,,,,,,,,,,,,,,,,,,,,,,,,,,,,,,,,,
,1447400986,Delta,N112AQ,31.2,3.4,-1,,,DJI P3,FC300X,WGS84,64.1564700133,-145.853287599,19,81.2,65.5,31,24.1,0,,,,,,,,,,,,,,,,,,,,,,,,,,,,,,,,,,,,,,,,,,,,,,,,,,,,,,,,,,,,,,,,,,,,,,,,,
,1447400986,Delta,N112AQ,31.1,3.4,-1,,,DJI P3,FC300X,WGS84,64.1564700133,-145.853287599,19,81.2,65.5,31,23.2,0,,,,,,,,,,,,,,,,,,,,,,,,,,,,,,,,,,,,,,,,,,,,,,,,,,,,,,,,,,,,,,,,,,,,,,,,,
,1447400986,Delta,N112AQ,31.1,3.3,-0.9,,,DJI P3,FC300X,WGS84,64.1564700133,-145.853287599,19,81.2,65.5,31,23.2,0,,,,,,,,,,,,,,,,,,,,,,,,,,,,,,,,,,,,,,,,,,,,,,,,,,,,,,,,,,,,,,,,,,,,,,,,,
,1447400986,Delta,N112AQ,31.2,3.1,-0.9,,,DJI P3,FC300X,WGS84,64.1564700133,-145.853287599,19,81.2,65.5,31,23.2,0,,,,,,,,,,,,,,,,,,,,,,,,,,,,,,,,,,,,,,,,,,,,,,,,,,,,,,,,,,,,,,,,,,,,,,,,,
,1447400986,Delta,N112AQ,31.2,3.1,-1,,,DJI P3,FC300X,WGS84,64.1564700133,-145.853287599,19,81.2,65.5,31,23.2,0,,,,,,,,,,,,,,,,,,,,,,,,,,,,,,,,,,,,,,,,,,,,,,,,,,,,,,,,,,,,,,,,,,,,,,,,,
,1447400986,Delta,N112AQ,31.3,2.9,-1.1,,,DJI P3,FC300X,WGS84,64.1564700133,-145.853287599,19,81.2,65.5,31,23.2,0,,,,,,,,,,,,,,,,,,,,,,,,,,,,,,,,,,,,,,,,,,,,,,,,,,,,,,,,,,,,,,,,,,,,,,,,,
,1447400987,Delta,N112AQ,31.3,2.8,-1.2,,,DJI P3,FC300X,WGS84,64.1564700133,-145.853287599,19,81.2,65.5,31,23.2,0,,,,,,,,,,,,,,,,,,,,,,,,,,,,,,,,,,,,,,,,,,,,,,,,,,,,,,,,,,,,,,,,,,,,,,,,,
,1447400987,Delta,N112AQ,31.3,2.8,-1.2,,,DJI P3,FC300X,WGS84,64.1564700133,-145.853287599,19,81.2,65.5,31,23.2,0,,,,,,,,,,,,,,,,,,,,,,,,,,,,,,,,,,,,,,,,,,,,,,,,,,,,,,,,,,,,,,,,,,,,,,,,,
,1447400987,Delta,N112AQ,31.4,2.8,-1.2,,,DJI P3,FC300X,WGS84,64.1564700133,-145.853287599,19,81.2,65.5,31,23.2,0,,,,,,,,,,,,,,,,,,,,,,,,,,,,,,,,,,,,,,,,,,,,,,,,,,,,,,,,,,,,,,,,,,,,,,,,,
,1447400987,Delta,N112AQ,31.8,2.6,-1.2,,,DJI P3,FC300X,WGS84,64.1564700133,-145.853287599,19,81.2,65.5,31.3,23.2,0,,,,,,,,,,,,,,,,,,,,,,,,,,,,,,,,,,,,,,,,,,,,,,,,,,,,,,,,,,,,,,,,,,,,,,,,,
,1447400987,Delta,N112AQ,33.4,2.7,-1.2,,,DJI P3,FC300X,WGS84,64.1564700133,-145.853287599,19,81.2,65.5,32.4,23.2,0,,,,,,,,,,,,,,,,,,,,,,,,,,,,,,,,,,,,,,,,,,,,,,,,,,,,,,,,,,,,,,,,,,,,,,,,,
,1447400987,Delta,N112AQ,36.3,2.9,-1.1,,,DJI P3,FC300X,WGS84,64.1564700133,-145.853287599,19,81.2,65.5,33.9,23.2,0,,,,,,,,,,,,,,,,,,,,,,,,,,,,,,,,,,,,,,,,,,,,,,,,,,,,,,,,,,,,,,,,,,,,,,,,,
,1447400987,Delta,N112AQ,39.7,2.9,-1.1,,,DJI P3,FC300X,WGS84,64.1564700133,-145.853287599,19,81.2,65.5,38,23.2,0,,,,,,,,,,,,,,,,,,,,,,,,,,,,,,,,,,,,,,,,,,,,,,,,,,,,,,,,,,,,,,,,,,,,,,,,,
,1447400987,Delta,N112AQ,43.3,3.1,-0.9,,,DJI P3,FC300X,WGS84,64.1564700133,-145.853287599,19,81.2,65.5,41.5,23.2,0,,,,,,,,,,,,,,,,,,,,,,,,,,,,,,,,,,,,,,,,,,,,,,,,,,,,,,,,,,,,,,,,,,,,,,,,,
,1447400988,Delta,N112AQ,53.1,3.1,-0.4,,,DJI P3,FC300X,WGS84,64.1564700133,-145.853287599,19,81.2,65.5,45.7,23.2,0,,,,,,,,,,,,,,,,,,,,,,,,,,,,,,,,,,,,,,,,,,,,,,,,,,,,,,,,,,,,,,,,,,,,,,,,,
,1447400988,Delta,N112AQ,58.4,3,-0.2,,,DJI P3,FC300X,WGS84,64.1564700133,-145.853287599,19,81.2,65.5,50.5,23.2,0,,,,,,,,,,,,,,,,,,,,,,,,,,,,,,,,,,,,,,,,,,,,,,,,,,,,,,,,,,,,,,,,,,,,,,,,,
,1447400988,Delta,N112AQ,63.4,3,0,,,DJI P3,FC300X,WGS84,64.1564700133,-145.853287599,19,81.2,65.5,55.6,23.2,0,,,,,,,,,,,,,,,,,,,,,,,,,,,,,,,,,,,,,,,,,,,,,,,,,,,,,,,,,,,,,,,,,,,,,,,,,
,1447400988,Delta,N112AQ,68.6,3.2,0.3,,,DJI P3,FC300X,WGS84,64.1564700133,-145.853287599,19,81.2,65.5,60.7,23.2,0,,,,,,,,,,,,,,,,,,,,,,,,,,,,,,,,,,,,,,,,,,,,,,,,,,,,,,,,,,,,,,,,,,,,,,,,,
,1447400988,Delta,N112AQ,73.8,3.1,0.7,,,DJI P3,FC300X,WGS84,64.1564700133,-145.853287599,19,81.2,65.5,65.7,23.2,0,,,,,,,,,,,,,,,,,,,,,,,,,,,,,,,,,,,,,,,,,,,,,,,,,,,,,,,,,,,,,,,,,,,,,,,,,
,1447400988,Delta,N112AQ,78.5,3,0.9,,,DJI P3,FC300X,WGS84,64.1564700133,-145.853287599,19.1,81.2,65.5,75.1,23.2,0,,,,,,,,,,,,,,,,,,,,,,,,,,,,,,,,,,,,,,,,,,,,,,,,,,,,,,,,,,,,,,,,,,,,,,,,,
,1447400988,Delta,N112AQ,82.7,2.9,1.2,,,DJI P3,FC300X,WGS84,64.1564700133,-145.853287599,19,81.2,65.5,79.1,23.2,0,,,,,,,,,,,,,,,,,,,,,,,,,,,,,,,,,,,,,,,,,,,,,,,,,,,,,,,,,,,,,,,,,,,,,,,,,
,1447400988,Delta,N112AQ,86.3,2.9,1.4,,,DJI P3,FC300X,WGS84,64.1564700133,-145.853287599,19,81.2,65.5,82.3,23.2,0,,,,,,,,,,,,,,,,,,,,,,,,,,,,,,,,,,,,,,,,,,,,,,,,,,,,,,,,,,,,,,,,,,,,,,,,,
,1447400988,Delta,N112AQ,89.6,3,1.3,,,DJI P3,FC300X,WGS84,64.1564700133,-145.853287599,19,81.2,65.5,84.5,23.2,0,,,,,,,,,,,,,,,,,,,,,,,,,,,,,,,,,,,,,,,,,,,,,,,,,,,,,,,,,,,,,,,,,,,,,,,,,
,1447400989,Delta,N112AQ,90,2.9,1.4,,,DJI P3,FC300X,WGS84,64.1564700133,-145.853287599,18.9,81.2,65.5,85.9,23.2,0,,,,,,,,,,,,,,,,,,,,,,,,,,,,,,,,,,,,,,,,,,,,,,,,,,,,,,,,,,,,,,,,,,,,,,,,,
,1447400989,Delta,N112AQ,90.3,2.9,1.4,,,DJI P3,FC300X,WGS84,64.1564700133,-145.853287599,18.9,81.2,65.5,87.4,23.2,0,,,,,,,,,,,,,,,,,,,,,,,,,,,,,,,,,,,,,,,,,,,,,,,,,,,,,,,,,,,,,,,,,,,,,,,,,
,1447400989,Delta,N112AQ,90.5,3,1.4,,,DJI P3,FC300X,WGS84,64.1564700133,-145.853287599,18.9,81.2,65.5,87.8,23.2,0,,,,,,,,,,,,,,,,,,,,,,,,,,,,,,,,,,,,,,,,,,,,,,,,,,,,,,,,,,,,,,,,,,,,,,,,,
,1447400989,Delta,N112AQ,90.7,3.2,1.3,,,DJI P3,FC300X,WGS84,64.1564700133,-145.853287599,18.9,81.2,65.5,88.1,23.2,0,,,,,,,,,,,,,,,,,,,,,,,,,,,,,,,,,,,,,,,,,,,,,,,,,,,,,,,,,,,,,,,,,,,,,,,,,
,1447400989,Delta,N112AQ,90.9,3.2,1.3,,,DJI P3,FC300X,WGS84,64.1564700133,-145.853287599,18.9,81.2,65.5,88.4,23.2,0,,,,,,,,,,,,,,,,,,,,,,,,,,,,,,,,,,,,,,,,,,,,,,,,,,,,,,,,,,,,,,,,,,,,,,,,,
,1447400989,Delta,N112AQ,91.2,3.2,1.1,,,DJI P3,FC300X,WGS84,64.1564700133,-145.853287599,18.9,81.2,65.5,88.7,23.2,0,,,,,,,,,,,,,,,,,,,,,,,,,,,,,,,,,,,,,,,,,,,,,,,,,,,,,,,,,,,,,,,,,,,,,,,,,
,1447400989,Delta,N112AQ,92.1,2.9,1.3,,,DJI P3,FC300X,WGS84,64.1564700133,-145.853287599,18.9,81.2,65.5,89.6,23.2,0,,,,,,,,,,,,,,,,,,,,,,,,,,,,,,,,,,,,,,,,,,,,,,,,,,,,,,,,,,,,,,,,,,,,,,,,,
,1447400989,Delta,N112AQ,94.7,3,1.2,,,DJI P3,FC300X,WGS84,64.1564700133,-145.853287599,18.9,81.2,65.5,91.3,23.2,0,,,,,,,,,,,,,,,,,,,,,,,,,,,,,,,,,,,,,,,,,,,,,,,,,,,,,,,,,,,,,,,,,,,,,,,,,
,1447400989,Delta,N112AQ,98.6,3.1,1.3,,,DJI P3,FC300X,WGS84,64.1564700133,-145.853287599,18.9,81.2,65.5,96.4,23.2,0,,,,,,,,,,,,,,,,,,,,,,,,,,,,,,,,,,,,,,,,,,,,,,,,,,,,,,,,,,,,,,,,,,,,,,,,,
,1447400989,Delta,N112AQ,102.9,3.2,1.4,,,DJI P3,FC300X,WGS84,64.1564700133,-145.853287599,18.9,81.2,65.5,100,23.2,0,,,,,,,,,,,,,,,,,,,,,,,,,,,,,,,,,,,,,,,,,,,,,,,,,,,,,,,,,,,,,,,,,,,,,,,,,
,1447400990,Delta,N112AQ,107.4,3.1,1.5,,,DJI P3,FC300X,WGS84,64.1564700133,-145.853287599,18.9,81.2,65.5,104,23.2,0,,,,,,,,,,,,,,,,,,,,,,,,,,,,,,,,,,,,,,,,,,,,,,,,,,,,,,,,,,,,,,,,,,,,,,,,,
,1447400990,Delta,N112AQ,111.7,3.3,1.4,,,DJI P3,FC300X,WGS84,64.1564700133,-145.853287599,18.9,81.2,65.5,108.3,23.2,0,,,,,,,,,,,,,,,,,,,,,,,,,,,,,,,,,,,,,,,,,,,,,,,,,,,,,,,,,,,,,,,,,,,,,,,,,
,1447400990,Delta,N112AQ,116,3.1,1.6,,,DJI P3,FC300X,WGS84,64.1564700133,-145.853287599,18.9,81.2,65.5,112.9,23.2,0,,,,,,,,,,,,,,,,,,,,,,,,,,,,,,,,,,,,,,,,,,,,,,,,,,,,,,,,,,,,,,,,,,,,,,,,,
,1447400990,Delta,N112AQ,125.9,2.7,1.8,,,DJI P3,FC300X,WGS84,64.1564700133,-145.853287599,18.8,81.2,65.5,117.7,23.2,0,,,,,,,,,,,,,,,,,,,,,,,,,,,,,,,,,,,,,,,,,,,,,,,,,,,,,,,,,,,,,,,,,,,,,,,,,
,1447400990,Delta,N112AQ,131,2.5,1.9,,,DJI P3,FC300X,WGS84,64.1564700133,-145.853287599,18.8,81.2,65.5,122.6,23.2,0,,,,,,,,,,,,,,,,,,,,,,,,,,,,,,,,,,,,,,,,,,,,,,,,,,,,,,,,,,,,,,,,,,,,,,,,,
,1447400990,Delta,N112AQ,134.5,2.4,1.8,,,DJI P3,FC300X,WGS84,64.1564700133,-145.853287599,18.8,81.2,65.5,127,23.2,0,,,,,,,,,,,,,,,,,,,,,,,,,,,,,,,,,,,,,,,,,,,,,,,,,,,,,,,,,,,,,,,,,,,,,,,,,
,1447400990,Delta,N112AQ,135.6,2.2,1.7,,,DJI P3,FC300X,WGS84,64.1564700133,-145.853287599,18.8,81.2,65.5,131.8,23.3,0,,,,,,,,,,,,,,,,,,,,,,,,,,,,,,,,,,,,,,,,,,,,,,,,,,,,,,,,,,,,,,,,,,,,,,,,,
,1447400990,Delta,N112AQ,136.1,1.9,1.7,,,DJI P3,FC300X,WGS84,64.1564700133,-145.853287599,18.8,81.2,65.5,132.9,23.2,0,,,,,,,,,,,,,,,,,,,,,,,,,,,,,,,,,,,,,,,,,,,,,,,,,,,,,,,,,,,,,,,,,,,,,,,,,
,1447400991,Delta,N112AQ,136.9,1.6,1.9,,,DJI P3,FC300X,WGS84,64.1564700133,-145.853287599,18.8,81.2,65.5,133.7,23.2,0,,,,,,,,,,,,,,,,,,,,,,,,,,,,,,,,,,,,,,,,,,,,,,,,,,,,,,,,,,,,,,,,,,,,,,,,,
,1447400991,Delta,N112AQ,137.2,1.4,1.9,,,DJI P3,FC300X,WGS84,64.1564700133,-145.853287599,18.8,81.2,65.5,134.3,23.2,0,,,,,,,,,,,,,,,,,,,,,,,,,,,,,,,,,,,,,,,,,,,,,,,,,,,,,,,,,,,,,,,,,,,,,,,,,
,1447400991,Delta,N112AQ,137.4,1.4,1.9,,,DJI P3,FC300X,WGS84,64.1564700133,-145.853287599,18.8,81.2,65.5,134.7,23.2,0,,,,,,,,,,,,,,,,,,,,,,,,,,,,,,,,,,,,,,,,,,,,,,,,,,,,,,,,,,,,,,,,,,,,,,,,,
,1447400991,Delta,N112AQ,137.7,1.3,1.8,,,DJI P3,FC300X,WGS84,64.1564700133,-145.853287599,18.8,81.2,65.5,135,23.2,0,,,,,,,,,,,,,,,,,,,,,,,,,,,,,,,,,,,,,,,,,,,,,,,,,,,,,,,,,,,,,,,,,,,,,,,,,
,1447400991,Delta,N112AQ,137.9,1.3,1.8,,,DJI P3,FC300X,WGS84,64.1564700133,-145.853287599,18.8,81.2,65.5,135.3,23.2,0,,,,,,,,,,,,,,,,,,,,,,,,,,,,,,,,,,,,,,,,,,,,,,,,,,,,,,,,,,,,,,,,,,,,,,,,,
,1447400991,Delta,N112AQ,138.2,1.2,1.7,,,DJI P3,FC300X,WGS84,64.1564700133,-145.853287599,18.8,81.2,65.5,135.8,23.2,0,,,,,,,,,,,,,,,,,,,,,,,,,,,,,,,,,,,,,,,,,,,,,,,,,,,,,,,,,,,,,,,,,,,,,,,,,
,1447400991,Delta,N112AQ,138.7,0.8,1.8,,,DJI P3,FC300X,WGS84,64.1564700133,-145.853287599,18.8,81.2,65.5,136,23.2,0,,,,,,,,,,,,,,,,,,,,,,,,,,,,,,,,,,,,,,,,,,,,,,,,,,,,,,,,,,,,,,,,,,,,,,,,,
,1447400991,Delta,N112AQ,138.8,0.8,1.8,,,DJI P3,FC300X,WGS84,64.1564700133,-145.853287599,18.8,81.2,65.5,136.2,23.2,0,,,,,,,,,,,,,,,,,,,,,,,,,,,,,,,,,,,,,,,,,,,,,,,,,,,,,,,,,,,,,,,,,,,,,,,,,
,1447400991,Delta,N112AQ,138.8,0.6,1.7,,,DJI P3,FC300X,WGS84,64.1564700133,-145.853287599,18.9,81.2,65.5,136.3,23.2,0,,,,,,,,,,,,,,,,,,,,,,,,,,,,,,,,,,,,,,,,,,,,,,,,,,,,,,,,,,,,,,,,,,,,,,,,,
,1447400992,Delta,N112AQ,138.8,0.4,1.7,,,DJI P3,FC300X,WGS84,64.1564700133,-145.853287599,18.9,81.2,65.5,136.5,23.2,0,,,,,,,,,,,,,,,,,,,,,,,,,,,,,,,,,,,,,,,,,,,,,,,,,,,,,,,,,,,,,,,,,,,,,,,,,
,1447400992,Delta,N112AQ,138.7,0.2,1.7,,,DJI P3,FC300X,WGS84,64.1564700133,-145.853287599,18.9,81.2,65.5,136.7,23.2,0,,,,,,,,,,,,,,,,,,,,,,,,,,,,,,,,,,,,,,,,,,,,,,,,,,,,,,,,,,,,,,,,,,,,,,,,,
,1447400992,Delta,N112AQ,138.8,0.1,1.7,,,DJI P3,FC300X,WGS84,64.1564700133,-145.853287599,18.9,81.2,65.5,136.8,23.2,0,,,,,,,,,,,,,,,,,,,,,,,,,,,,,,,,,,,,,,,,,,,,,,,,,,,,,,,,,,,,,,,,,,,,,,,,,
,1447400992,Delta,N112AQ,138.7,0.4,1.7,,,DJI P3,FC300X,WGS84,64.1564700133,-145.853287599,19,81.2,65.5,136.9,23.2,0,,,,,,,,,,,,,,,,,,,,,,,,,,,,,,,,,,,,,,,,,,,,,,,,,,,,,,,,,,,,,,,,,,,,,,,,,
,1447400992,Delta,N112AQ,138.7,0.4,1.9,,,DJI P3,FC300X,WGS84,64.1564700133,-145.853287599,19,81.2,65.5,137,23.2,0,,,,,,,,,,,,,,,,,,,,,,,,,,,,,,,,,,,,,,,,,,,,,,,,,,,,,,,,,,,,,,,,,,,,,,,,,
,1447400992,Delta,N112AQ,138.7,0.4,2,,,DJI P3,FC300X,WGS84,64.1564700133,-145.853287599,19,81.2,65.5,137,23.2,0,,,,,,,,,,,,,,,,,,,,,,,,,,,,,,,,,,,,,,,,,,,,,,,,,,,,,,,,,,,,,,,,,,,,,,,,,
,1447400992,Delta,N112AQ,138.8,0.5,2.3,,,DJI P3,FC300X,WGS84,64.1564700133,-145.853287599,19,81.2,65.5,137.1,23.2,0,,,,,,,,,,,,,,,,,,,,,,,,,,,,,,,,,,,,,,,,,,,,,,,,,,,,,,,,,,,,,,,,,,,,,,,,,
,1447400992,Delta,N112AQ,138.9,0.5,2.4,,,DJI P3,FC300X,WGS84,64.1564700133,-145.853287599,19,81.2,65.5,137.2,23.2,0,,,,,,,,,,,,,,,,,,,,,,,,,,,,,,,,,,,,,,,,,,,,,,,,,,,,,,,,,,,,,,,,,,,,,,,,,
,1447400993,Delta,N112AQ,138.9,0.4,2.5,,,DJI P3,FC300X,WGS84,64.1564700133,-145.853287599,19,81.2,65.5,137.3,23.2,0,,,,,,,,,,,,,,,,,,,,,,,,,,,,,,,,,,,,,,,,,,,,,,,,,,,,,,,,,,,,,,,,,,,,,,,,,
,1447400993,Delta,N112AQ,139.3,-0.1,2.4,,,DJI P3,FC300X,WGS84,64.1564700133,-145.853287599,19,81.2,65.5,137.8,23.2,0,,,,,,,,,,,,,,,,,,,,,,,,,,,,,,,,,,,,,,,,,,,,,,,,,,,,,,,,,,,,,,,,,,,,,,,,,
,1447400993,Delta,N112AQ,139.3,-0.1,2.4,,,DJI P3,FC300X,WGS84,64.1564700133,-145.853287599,19,81.2,65.5,139.6,23.2,0,,,,,,,,,,,,,,,,,,,,,,,,,,,,,,,,,,,,,,,,,,,,,,,,,,,,,,,,,,,,,,,,,,,,,,,,,
,1447400993,Delta,N112AQ,146.7,-0.4,2.4,,,DJI P3,FC300X,WGS84,64.1564700133,-145.853287599,19.1,81.2,65.5,142.1,23.2,0,,,,,,,,,,,,,,,,,,,,,,,,,,,,,,,,,,,,,,,,,,,,,,,,,,,,,,,,,,,,,,,,,,,,,,,,,
,1447400993,Delta,N112AQ,153,-0.5,2.4,,,DJI P3,FC300X,WGS84,64.1564700133,-145.853287599,19.1,81.2,65.5,145.8,23.2,0,,,,,,,,,,,,,,,,,,,,,,,,,,,,,,,,,,,,,,,,,,,,,,,,,,,,,,,,,,,,,,,,,,,,,,,,,
,1447400993,Delta,N112AQ,161.4,-0.5,2.6,,,DJI P3,FC300X,WGS84,64.1564700133,-145.853287599,19,81.2,65.5,151.8,23.2,0,,,,,,,,,,,,,,,,,,,,,,,,,,,,,,,,,,,,,,,,,,,,,,,,,,,,,,,,,,,,,,,,,,,,,,,,,
,1447400993,Delta,N112AQ,170.9,-0.1,2.3,,,DJI P3,FC300X,WGS84,64.1564700133,-145.853287599,19,81.2,65.5,168.6,23.2,0,,,,,,,,,,,,,,,,,,,,,,,,,,,,,,,,,,,,,,,,,,,,,,,,,,,,,,,,,,,,,,,,,,,,,,,,,
,1447400993,Delta,N112AQ,179.5,0,2.1,,,DJI P3,FC300X,WGS84,64.1564700133,-145.853287599,19,81.2,65.5,176.8,23.2,0,,,,,,,,,,,,,,,,,,,,,,,,,,,,,,,,,,,,,,,,,,,,,,,,,,,,,,,,,,,,,,,,,,,,,,,,,
,1447400994,Delta,N112AQ,190.5,-0.2,1.7,,,DJI P3,FC300X,WGS84,64.1564700133,-145.853287599,19,81.2,65.5,-176.6,23.2,0,,,,,,,,,,,,,,,,,,,,,,,,,,,,,,,,,,,,,,,,,,,,,,,,,,,,,,,,,,,,,,,,,,,,,,,,,
,1447400994,Delta,N112AQ,192.7,-0.6,1.4,,,DJI P3,FC300X,WGS84,64.1564700133,-145.853287599,18.9,81.2,65.5,-172.5,23.2,0,,,,,,,,,,,,,,,,,,,,,,,,,,,,,,,,,,,,,,,,,,,,,,,,,,,,,,,,,,,,,,,,,,,,,,,,,
,1447400994,Delta,N112AQ,193.7,-1.2,1.1,,,DJI P3,FC300X,WGS84,64.1564700133,-145.853287599,19,81.2,65.5,-170.1,23.2,0,,,,,,,,,,,,,,,,,,,,,,,,,,,,,,,,,,,,,,,,,,,,,,,,,,,,,,,,,,,,,,,,,,,,,,,,,
,1447400994,Delta,N112AQ,194.4,-0.9,0.9,,,DJI P3,FC300X,WGS84,64.1564700133,-145.853287599,19,81.2,65.5,-168.7,23.2,0,,,,,,,,,,,,,,,,,,,,,,,,,,,,,,,,,,,,,,,,,,,,,,,,,,,,,,,,,,,,,,,,,,,,,,,,,
,1447400994,Delta,N112AQ,195,-0.3,-0.8,,,DJI P3,FC300X,WGS84,64.1564700133,-145.853287599,18.9,81.2,65.5,-167.8,23.2,0,,,,,,,,,,,,,,,,,,,,,,,,,,,,,,,,,,,,,,,,,,,,,,,,,,,,,,,,,,,,,,,,,,,,,,,,,
,1447400994,Delta,N112AQ,195.5,0.6,-3.9,,,DJI P3,FC300X,WGS84,64.1564700133,-145.853287599,18.9,81.2,65.5,-167,23.2,0,,,,,,,,,,,,,,,,,,,,,,,,,,,,,,,,,,,,,,,,,,,,,,,,,,,,,,,,,,,,,,,,,,,,,,,,,
,1447400994,Delta,N112AQ,195.7,2.4,-7.3,,,DJI P3,FC300X,WGS84,64.1564700133,-145.853287599,18.9,81.2,65.5,-165.9,23.2,0,,,,,,,,,,,,,,,,,,,,,,,,,,,,,,,,,,,,,,,,,,,,,,,,,,,,,,,,,,,,,,,,,,,,,,,,,
,1447400994,Delta,N112AQ,196,4.1,-10.8,,,DJI P3,FC300X,WGS84,64.1564700133,-145.853287599,18.9,81.2,65.5,-165.4,23.2,0,,,,,,,,,,,,,,,,,,,,,,,,,,,,,,,,,,,,,,,,,,,,,,,,,,,,,,,,,,,,,,,,,,,,,,,,,
,1447400994,Delta,N112AQ,195.9,4,-11.8,,,DJI P3,FC300X,WGS84,64.1564700133,-145.853287599,18.9,81.2,65.5,-165.1,23.2,0,,,,,,,,,,,,,,,,,,,,,,,,,,,,,,,,,,,,,,,,,,,,,,,,,,,,,,,,,,,,,,,,,,,,,,,,,
,1447400995,Delta,N112AQ,195.9,3.4,-12.2,,,DJI P3,FC300X,WGS84,64.1564700133,-145.853287599,18.9,81.2,65.5,-164.8,23.2,0,,,,,,,,,,,,,,,,,,,,,,,,,,,,,,,,,,,,,,,,,,,,,,,,,,,,,,,,,,,,,,,,,,,,,,,,,
,1447400995,Delta,N112AQ,195.7,2.9,-12.4,,,DJI P3,FC300X,WGS84,64.1564700133,-145.853287599,18.9,81.2,65.5,-164.7,23.2,0,,,,,,,,,,,,,,,,,,,,,,,,,,,,,,,,,,,,,,,,,,,,,,,,,,,,,,,,,,,,,,,,,,,,,,,,,
,1447400995,Delta,N112AQ,195.5,2.9,-12.7,,,DJI P3,FC300X,WGS84,64.1564700133,-145.853287599,18.8,81.2,65.5,-164.5,23.2,0,,,,,,,,,,,,,,,,,,,,,,,,,,,,,,,,,,,,,,,,,,,,,,,,,,,,,,,,,,,,,,,,,,,,,,,,,
,1447400995,Delta,N112AQ,195.4,3.3,-13.3,,,DJI P3,FC300X,WGS84,64.1564700133,-145.853287599,18.8,81.2,65.5,-164.5,23.2,0,,,,,,,,,,,,,,,,,,,,,,,,,,,,,,,,,,,,,,,,,,,,,,,,,,,,,,,,,,,,,,,,,,,,,,,,,
,1447400995,Delta,N112AQ,195.2,3.7,-13.9,,,DJI P3,FC300X,WGS84,64.1564700133,-145.853287599,18.8,81.2,65.5,-164.5,23.2,0,,,,,,,,,,,,,,,,,,,,,,,,,,,,,,,,,,,,,,,,,,,,,,,,,,,,,,,,,,,,,,,,,,,,,,,,,
,1447400995,Delta,N112AQ,195.2,3.4,-13.8,,,DJI P3,FC300X,WGS84,64.1564700133,-145.853287599,18.8,81.2,65.5,-164.5,23.2,0,,,,,,,,,,,,,,,,,,,,,,,,,,,,,,,,,,,,,,,,,,,,,,,,,,,,,,,,,,,,,,,,,,,,,,,,,
,1447400995,Delta,N112AQ,195.3,2.4,-13.7,,,DJI P3,FC300X,WGS84,64.1564700133,-145.853287599,18.8,81.2,65.5,-164.5,23.2,0,,,,,,,,,,,,,,,,,,,,,,,,,,,,,,,,,,,,,,,,,,,,,,,,,,,,,,,,,,,,,,,,,,,,,,,,,
,1447400995,Delta,N112AQ,195.3,2.2,-13.5,,,DJI P3,FC300X,WGS84,64.1564700133,-145.853287599,18.8,81.2,65.5,-164.5,23.3,0,,,,,,,,,,,,,,,,,,,,,,,,,,,,,,,,,,,,,,,,,,,,,,,,,,,,,,,,,,,,,,,,,,,,,,,,,
,1447400995,Delta,N112AQ,195.1,2.1,-13.5,,,DJI P3,FC300X,WGS84,64.1564700133,-145.853287599,18.7,81.2,65.5,-164.5,23.2,0,,,,,,,,,,,,,,,,,,,,,,,,,,,,,,,,,,,,,,,,,,,,,,,,,,,,,,,,,,,,,,,,,,,,,,,,,
,1447400996,Delta,N112AQ,195,1.8,-13.3,,,DJI P3,FC300X,WGS84,64.1564700133,-145.853287599,18.7,81.2,65.5,-164.4,23.2,0,,,,,,,,,,,,,,,,,,,,,,,,,,,,,,,,,,,,,,,,,,,,,,,,,,,,,,,,,,,,,,,,,,,,,,,,,
,1447400996,Delta,N112AQ,195,1.3,-13.2,,,DJI P3,FC300X,WGS84,64.1564700133,-145.853287599,18.7,81.2,65.5,-164.5,23.2,0,,,,,,,,,,,,,,,,,,,,,,,,,,,,,,,,,,,,,,,,,,,,,,,,,,,,,,,,,,,,,,,,,,,,,,,,,
,1447400996,Delta,N112AQ,195,0.6,-12.9,,,DJI P3,FC300X,WGS84,64.1564700133,-145.853287599,18.7,81.2,65.5,-164.5,23.3,0,,,,,,,,,,,,,,,,,,,,,,,,,,,,,,,,,,,,,,,,,,,,,,,,,,,,,,,,,,,,,,,,,,,,,,,,,
,1447400996,Delta,N112AQ,195.2,-0.3,-12.2,,,DJI P3,FC300X,WGS84,64.1564700133,-145.853287599,18.7,81.2,65.5,-164.5,23.2,0,,,,,,,,,,,,,,,,,,,,,,,,,,,,,,,,,,,,,,,,,,,,,,,,,,,,,,,,,,,,,,,,,,,,,,,,,
,1447400996,Delta,N112AQ,195.2,-0.6,-11.9,,,DJI P3,FC300X,WGS84,64.1564700133,-145.853287599,18.7,81.2,65.5,-164.5,23.2,0,,,,,,,,,,,,,,,,,,,,,,,,,,,,,,,,,,,,,,,,,,,,,,,,,,,,,,,,,,,,,,,,,,,,,,,,,
,1447400996,Delta,N112AQ,195.3,-0.8,-11.6,,,DJI P3,FC300X,WGS84,64.1564700133,-145.853287599,18.8,81.2,65.5,-164.5,23.2,0,,,,,,,,,,,,,,,,,,,,,,,,,,,,,,,,,,,,,,,,,,,,,,,,,,,,,,,,,,,,,,,,,,,,,,,,,
,1447400996,Delta,N112AQ,195.4,-1.2,-11.2,,,DJI P3,FC300X,WGS84,64.1564700133,-145.853287599,18.8,81.2,65.5,-164.5,23.2,0,,,,,,,,,,,,,,,,,,,,,,,,,,,,,,,,,,,,,,,,,,,,,,,,,,,,,,,,,,,,,,,,,,,,,,,,,
,1447400996,Delta,N112AQ,195.5,-1.4,-10.9,,,DJI P3,FC300X,WGS84,64.1564700133,-145.853287599,18.8,81.2,65.5,-164.5,23.2,0,,,,,,,,,,,,,,,,,,,,,,,,,,,,,,,,,,,,,,,,,,,,,,,,,,,,,,,,,,,,,,,,,,,,,,,,,
,1447400996,Delta,N112AQ,195.5,-1.7,-10.7,,,DJI P3,FC300X,WGS84,64.1564700133,-145.853287599,18.8,81.2,65.5,-164.5,23.2,0,,,,,,,,,,,,,,,,,,,,,,,,,,,,,,,,,,,,,,,,,,,,,,,,,,,,,,,,,,,,,,,,,,,,,,,,,
,1447400996,Delta,N112AQ,195.6,-1.9,-10.5,,,DJI P3,FC300X,WGS84,64.1564700133,-145.853287599,18.8,81.2,65.5,-164.5,23.2,0,,,,,,,,,,,,,,,,,,,,,,,,,,,,,,,,,,,,,,,,,,,,,,,,,,,,,,,,,,,,,,,,,,,,,,,,,
,1447400997,Delta,N112AQ,196.4,-2.4,-10.3,,,DJI P3,FC300X,WGS84,64.1564700133,-145.853287599,18.9,81.2,65.5,-164.5,23.2,0,,,,,,,,,,,,,,,,,,,,,,,,,,,,,,,,,,,,,,,,,,,,,,,,,,,,,,,,,,,,,,,,,,,,,,,,,
,1447400997,Delta,N112AQ,196.7,-2.4,-10.2,,,DJI P3,FC300X,WGS84,64.1564700133,-145.853287599,18.9,81.2,65.5,-164.5,23.2,0,,,,,,,,,,,,,,,,,,,,,,,,,,,,,,,,,,,,,,,,,,,,,,,,,,,,,,,,,,,,,,,,,,,,,,,,,
,1447400997,Delta,N112AQ,196.8,-2.5,-10.3,,,DJI P3,FC300X,WGS84,64.1564700133,-145.853287599,18.9,81.2,65.5,-164.5,23.2,0,,,,,,,,,,,,,,,,,,,,,,,,,,,,,,,,,,,,,,,,,,,,,,,,,,,,,,,,,,,,,,,,,,,,,,,,,
,1447400997,Delta,N112AQ,196.9,-2.2,-10.2,,,DJI P3,FC300X,WGS84,64.1564700133,-145.853287599,18.9,81.2,65.5,-164.5,23.2,0,,,,,,,,,,,,,,,,,,,,,,,,,,,,,,,,,,,,,,,,,,,,,,,,,,,,,,,,,,,,,,,,,,,,,,,,,
,1447400997,Delta,N112AQ,197,-2.2,-9.8,,,DJI P3,FC300X,WGS84,64.1564700133,-145.853287599,18.9,81.2,65.5,-164.4,23.2,0,,,,,,,,,,,,,,,,,,,,,,,,,,,,,,,,,,,,,,,,,,,,,,,,,,,,,,,,,,,,,,,,,,,,,,,,,
,1447400997,Delta,N112AQ,197,-2.3,-9.1,,,DJI P3,FC300X,WGS84,64.1564700133,-145.853287599,19,81.2,65.5,-164.4,23.2,0,,,,,,,,,,,,,,,,,,,,,,,,,,,,,,,,,,,,,,,,,,,,,,,,,,,,,,,,,,,,,,,,,,,,,,,,,
,1447400997,Delta,N112AQ,196.8,-2.9,-6.7,,,DJI P3,FC300X,WGS84,64.1564700133,-145.853287599,19,81.2,65.5,-164.4,23.2,0,,,,,,,,,,,,,,,,,,,,,,,,,,,,,,,,,,,,,,,,,,,,,,,,,,,,,,,,,,,,,,,,,,,,,,,,,
,1447400997,Delta,N112AQ,196.8,-3.2,-4.8,,,DJI P3,FC300X,WGS84,64.1564700133,-145.853287599,19,81.2,65.5,-164.4,23.2,0,,,,,,,,,,,,,,,,,,,,,,,,,,,,,,,,,,,,,,,,,,,,,,,,,,,,,,,,,,,,,,,,,,,,,,,,,
,1447400998,Delta,N112AQ,196.8,-4.8,2.3,,,DJI P3,FC300X,WGS84,64.1564700133,-145.853287599,19,81.2,65.5,-164.4,23.2,0,,,,,,,,,,,,,,,,,,,,,,,,,,,,,,,,,,,,,,,,,,,,,,,,,,,,,,,,,,,,,,,,,,,,,,,,,
,1447400998,Delta,N112AQ,196.6,-6.1,6.1,,,DJI P3,FC300X,WGS84,64.1564700133,-145.853287599,19,81.2,65.5,-164.2,23.2,0,,,,,,,,,,,,,,,,,,,,,,,,,,,,,,,,,,,,,,,,,,,,,,,,,,,,,,,,,,,,,,,,,,,,,,,,,
,1447400998,Delta,N112AQ,196.1,-8,11.1,,,DJI P3,FC300X,WGS84,64.1564700133,-145.853287599,18.9,81.2,65.5,-164.2,23.2,0,,,,,,,,,,,,,,,,,,,,,,,,,,,,,,,,,,,,,,,,,,,,,,,,,,,,,,,,,,,,,,,,,,,,,,,,,
,1447400998,Delta,N112AQ,195.5,-10.1,15.9,,,DJI P3,FC300X,WGS84,64.1564700133,-145.853287599,18.9,81.2,65.5,-164,23.2,0,,,,,,,,,,,,,,,,,,,,,,,,,,,,,,,,,,,,,,,,,,,,,,,,,,,,,,,,,,,,,,,,,,,,,,,,,
,1447400998,Delta,N112AQ,195,-11.6,19.5,,,DJI P3,FC300X,WGS84,64.1564700133,-145.853287599,18.9,81.2,65.5,-163.8,23.2,0,,,,,,,,,,,,,,,,,,,,,,,,,,,,,,,,,,,,,,,,,,,,,,,,,,,,,,,,,,,,,,,,,,,,,,,,,
,1447400998,Delta,N112AQ,194.7,-11.2,19.4,,,DJI P3,FC300X,WGS84,64.1564700133,-145.853287599,18.9,81.2,65.5,-163.6,23.2,0,,,,,,,,,,,,,,,,,,,,,,,,,,,,,,,,,,,,,,,,,,,,,,,,,,,,,,,,,,,,,,,,,,,,,,,,,
,1447400998,Delta,N112AQ,194.5,-10.9,19,,,DJI P3,FC300X,WGS84,64.1564700133,-145.853287599,18.9,81.2,65.5,-163.5,23.2,0,,,,,,,,,,,,,,,,,,,,,,,,,,,,,,,,,,,,,,,,,,,,,,,,,,,,,,,,,,,,,,,,,,,,,,,,,
,1447400998,Delta,N112AQ,194.5,-11,18.7,,,DJI P3,FC300X,WGS84,64.1564700133,-145.853287599,18.9,81.2,65.5,-163.4,23.2,0,,,,,,,,,,,,,,,,,,,,,,,,,,,,,,,,,,,,,,,,,,,,,,,,,,,,,,,,,,,,,,,,,,,,,,,,,
,1447400998,Delta,N112AQ,194.5,-11,18.3,,,DJI P3,FC300X,WGS84,64.1564700133,-145.853287599,18.9,81.2,65.5,-163.3,23.2,0,,,,,,,,,,,,,,,,,,,,,,,,,,,,,,,,,,,,,,,,,,,,,,,,,,,,,,,,,,,,,,,,,,,,,,,,,
,1447400998,Delta,N112AQ,194.6,-11.2,16.7,,,DJI P3,FC300X,WGS84,64.1564700133,-145.853287599,18.9,81.2,65.5,-163.3,23.2,0,,,,,,,,,,,,,,,,,,,,,,,,,,,,,,,,,,,,,,,,,,,,,,,,,,,,,,,,,,,,,,,,,,,,,,,,,
,1447400999,Delta,N112AQ,195.1,-10.3,14.5,,,DJI P3,FC300X,WGS84,64.1564700133,-145.853287599,18.9,81.2,65.5,-163.2,23.2,0,,,,,,,,,,,,,,,,,,,,,,,,,,,,,,,,,,,,,,,,,,,,,,,,,,,,,,,,,,,,,,,,,,,,,,,,,
,1447400999,Delta,N112AQ,195.6,-8.9,12.3,,,DJI P3,FC300X,WGS84,64.1564700133,-145.853287599,18.9,81.2,65.5,-163.2,23.2,0,,,,,,,,,,,,,,,,,,,,,,,,,,,,,,,,,,,,,,,,,,,,,,,,,,,,,,,,,,,,,,,,,,,,,,,,,
,1447400999,Delta,N112AQ,195.6,-7.7,9.8,,,DJI P3,FC300X,WGS84,64.1564700133,-145.853287599,18.9,81.2,65.5,-163.2,23.2,0,,,,,,,,,,,,,,,,,,,,,,,,,,,,,,,,,,,,,,,,,,,,,,,,,,,,,,,,,,,,,,,,,,,,,,,,,
,1447400999,Delta,N112AQ,195.5,-6.2,7.7,,,DJI P3,FC300X,WGS84,64.1564700133,-145.853287599,18.8,81.2,65.5,-163.2,23.2,0,,,,,,,,,,,,,,,,,,,,,,,,,,,,,,,,,,,,,,,,,,,,,,,,,,,,,,,,,,,,,,,,,,,,,,,,,
,1447400999,Delta,N112AQ,195.4,-5.2,5.9,,,DJI P3,FC300X,WGS84,64.1564700133,-145.853287599,18.8,81.2,65.5,-163.2,23.2,0,,,,,,,,,,,,,,,,,,,,,,,,,,,,,,,,,,,,,,,,,,,,,,,,,,,,,,,,,,,,,,,,,,,,,,,,,
