Time,cs:altitude_agl,cs:altitude_amsl,cs:ground_elevation,cs:ground_speed_x,cs:ground_speed_y,cs:ground_speed_z,fc:altitude_raw,fc:control_mode,fc:course,fc:downlink_present,fc:gcs_link_quality,fc:ground_speed,fc:heading,fc:is_armed,fc:latitude,fc:longitude,fc:main_current,fc:main_voltage,fc:pitch,fc:rc_link_quality,fc:remaining_power_level,fc:roll,fc:satellite_count,fc:takeoff_latitude,fc:takeoff_longitude,fc:uplink_present,fc:vertical_speed,gb:heading,gb:pitch,gb:roll
2017-07-18T16:16:44.309,,,,0.0,0.0,-0.0,0.0,,,,,0.0,-115.59999986790774,,64.84101148175677,-147.71852695404934,,,-2.899999996686266,,,-0.8999999989715999,0.0,,,,-0.0,,,
2017-07-18T16:16:44.358,,,,0.0,0.0,-0.0,0.0,,,,,0.0,-115.59999986790774,,64.84101148175677,-147.71852695404934,,,-2.899999996686266,,,-0.8999999989715999,0.0,,,,-0.0,-115.59999834202881,0.0,0.0
2017-07-18T16:16:44.462,,,,0.0,0.0,-0.0,0.0,,,,,0.0,-115.59999986790774,,64.84101148175677,-147.71852695404934,,,-2.899999996686266,,,-0.8999999989715999,0.0,,,,-0.0,-115.59999834202881,0.0,0.0
2017-07-18T16:16:44.612,,,,0.0,0.0,-0.0,0.0,,,,,0.0,-115.59999986790774,,64.84101148175677,-147.71852695404934,,,-2.899999996686266,,,-0.8999999989715999,0.0,,,,-0.0,-115.59999834202881,0.0,0.0
2017-07-18T16:16:44.693,,,,0.0,0.0,-0.0,0.0,,,,1.0,0.0,-115.59999986790774,,64.84101148175677,-147.71852695404934,,,-2.899999996686266,1.0,,-0.8999999989715999,0.0,,,,-0.0,-115.59999834202881,0.0,0.0
2017-07-18T16:16:44.728,,,,0.0,0.0,-0.0,0.0,,,,1.0,0.0,-115.59999986790774,,64.84101148175677,-147.71852695404934,1.006,15.306,-2.899999996686266,1.0,0.46,-0.8999999989715999,0.0,,,,-0.0,-115.59999834202881,0.0,0.0
2017-07-18T16:16:44.758,,,,0.0,0.0,-0.0,0.0,,,,1.0,0.0,-115.59999986790774,,64.84101148175677,-147.71852695404934,1.006,15.306,-2.899999996686266,1.0,0.46,-0.8999999989715999,0.0,,,,-0.0,-115.59999834202881,0.0,0.0
2017-07-18T16:16:44.763,,,,0.0,0.0,-0.0,0.0,,,,1.0,0.0,-115.59999986790774,,64.84101148175677,-147.71852695404934,1.006,15.306,-2.899999996686266,1.0,0.46,-0.8999999989715999,0.0,,,,-0.0,-115.59999834202881,0.0,0.0
2017-07-18T16:16:44.913,,,,0.0,0.0,-0.0,0.0,,,,1.0,0.0,-115.59999986790774,,64.84101148175677,-147.71852695404934,1.006,15.306,-2.899999996686266,1.0,0.46,-0.8999999989715999,0.0,,,,-0.0,-115.59999834202881,0.0,0.0
2017-07-18T16:16:45.63,,,,0.0,0.0,-0.0,0.0,,,,1.0,0.0,-115.59999986790774,,64.84101148175677,-147.71852695404934,1.006,15.306,-2.899999996686266,1.0,0.46,-0.8999999989715999,0.0,,,,-0.0,-115.59999834202881,0.0,0.0
2017-07-18T16:16:45.158,,,,0.0,0.0,-0.0,0.0,,,,1.0,0.0,-115.59999986790774,,64.84101148175677,-147.71852695404934,1.006,15.306,-2.899999996686266,1.0,0.46,-0.8999999989715999,0.0,,,,-0.0,-115.59999834202881,0.0,0.0
2017-07-18T16:16:45.214,,,,0.0,0.0,-0.0,0.0,,,,1.0,0.0,-115.49999986802199,,64.84101148175677,-147.71852695404934,1.006,15.306,-2.899999996686266,1.0,0.46,-0.8999999989715999,0.0,,,,-0.0,-115.59999834202881,0.0,0.0
2017-07-18T16:16:45.364,,,,0.0,0.0,-0.0,0.0,,,,1.0,0.0,-115.49999986802199,,64.84101148175677,-147.71852695404934,1.006,15.306,-2.899999996686266,1.0,0.46,-0.8999999989715999,0.0,,,,-0.0,-115.59999834202881,0.0,0.0
2017-07-18T16:16:45.494,,,,0.0,0.0,-0.0,0.0,,,,1.0,0.0,-115.49999986802199,,64.84101148175677,-147.71852695404934,1.006,15.306,-2.899999996686266,1.0,0.46,-0.8999999989715999,0.0,,,,-0.0,-115.59999834202881,0.0,0.0
2017-07-18T16:16:45.515,,,,0.0,0.0,-0.0,0.0,,,,1.0,0.0,-115.49999986802199,,64.84101148175677,-147.71852695404934,1.006,15.306,-2.899999996686266,1.0,0.46,-0.8999999989715999,0.0,,,,-0.0,-115.59999834202881,0.0,0.0
2017-07-18T16:16:45.558,,,,0.0,0.0,-0.0,0.0,,,,1.0,0.0,-115.49999986802199,,64.84101148175677,-147.71852695404934,1.006,15.306,-2.899999996686266,1.0,0.46,-0.8999999989715999,0.0,,,,-0.0,-115.59999834202881,0.0,0.0
2017-07-18T16:16:45.665,,,,0.0,0.0,-0.0,0.0,,,,1.0,0.0,-115.49999986802199,,64.84101148175677,-147.71852695404934,1.006,15.306,-2.899999996686266,1.0,0.46,-0.8999999989715999,0.0,,,,-0.0,-115.59999834202881,0.0,0.0
2017-07-18T16:16:45.815,,,,0.0,0.0,-0.0,0.0,,,,1.0,0.0,-115.49999986802199,,64.84101148175677,-147.71852695404934,1.006,15.306,-2.899999996686266,1.0,0.46,-0.8999999989715999,0.0,,,,-0.0,-115.59999834202881,0.0,0.0
2017-07-18T16:16:45.958,,,,0.0,0.0,-0.0,0.0,,,,1.0,0.0,-115.49999986802199,,64.84101148175677,-147.71852695404934,1.006,15.306,-2.899999996686266,1.0,0.46,-0.8999999989715999,0.0,,,,-0.0,-115.59999834202881,0.0,0.0
2017-07-18T16:16:45.965,,,,0.0,0.0,-0.0,0.0,,,,1.0,0.0,-115.49999986802199,,64.84101148175677,-147.71852695404934,1.006,15.306,-2.899999996686266,1.0,0.46,-0.8999999989715999,0.0,,,,-0.0,-115.59999834202881,0.0,0.0
2017-07-18T16:16:46.115,,,,0.0,0.0,-0.0,0.0,,,,1.0,0.0,-115.49999986802199,,64.84101148175677,-147.71852695404934,1.006,15.306,-2.899999996686266,1.0,0.46,-0.8999999989715999,0.0,,,,-0.0,-115.59999834202881,0.0,0.0
2017-07-18T16:16:46.211,,,,0.0,0.0,-0.0,0.0,0.0,,true,1.0,0.0,-115.49999986802199,false,64.84101148175677,-147.71852695404934,1.006,15.306,-2.899999996686266,1.0,0.46,-0.8999999989715999,0.0,,,true,-0.0,-115.59999834202881,0.0,0.0
2017-07-18T16:16:46.216,,,,0.0,0.0,-0.0,0.0,0.0,,true,1.0,0.0,-115.49999986802199,false,64.84101148175677,-147.71852695404934,1.006,15.306,-2.899999996686266,1.0,0.46,-0.8999999989715999,0.0,64.91282070926617,-147.9109646927836,true,-0.0,-115.59999834202881,0.0,0.0
2017-07-18T16:16:46.265,61.13665771484375,197.2212371826172,136.08457946777344,0.0,0.0,-0.0,0.0,0.0,,true,1.0,0.0,-115.49999986802199,false,64.84101148175677,-147.71852695404934,1.006,15.306,-2.899999996686266,1.0,0.46,-0.8999999989715999,0.0,64.91282070926617,-147.9109646927836,true,-0.0,-115.59999834202881,0.0,0.0
2017-07-18T16:16:46.294,61.13665771484375,197.2212371826172,136.08457946777344,0.0,0.0,-0.0,0.0,0.0,,true,1.0,0.0,-115.49999986802199,false,64.84101148175677,-147.71852695404934,1.006,15.306,-2.899999996686266,1.0,0.46,-0.8999999989715999,0.0,64.91282070926617,-147.9109646927836,true,-0.0,-115.59999834202881,0.0,0.0
2017-07-18T16:16:46.358,61.13665771484375,197.2212371826172,136.08457946777344,0.0,0.0,-0.0,0.0,0.0,,true,1.0,0.0,-115.49999986802199,false,64.84101148175677,-147.71852695404934,1.006,15.306,-2.899999996686266,1.0,0.46,-0.8999999989715999,0.0,64.91282070926617,-147.9109646927836,true,-0.0,-115.59999834202881,0.0,0.0
2017-07-18T16:16:46.416,61.13665771484375,197.2212371826172,136.08457946777344,0.0,0.0,-0.0,0.0,0.0,,true,1.0,0.0,-115.49999986802199,false,64.84101148175677,-147.71852695404934,1.006,15.306,-2.899999996686266,1.0,0.46,-0.8999999989715999,0.0,64.91282070926617,-147.9109646927836,true,-0.0,-115.59999834202881,0.0,0.0
2017-07-18T16:16:46.566,61.13665771484375,197.2212371826172,136.08457946777344,0.0,0.0,-0.0,0.0,0.0,,true,1.0,0.0,-115.49999986802199,false,64.84101148175677,-147.71852695404934,1.006,15.306,-2.899999996686266,1.0,0.46,-0.8999999989715999,0.0,64.91282070926617,-147.9109646927836,true,-0.0,-115.59999834202881,0.0,0.0
2017-07-18T16:16:46.716,61.13665771484375,197.2212371826172,136.08457946777344,0.0,0.0,-0.0,0.0,0.0,,true,1.0,0.0,-115.49999986802199,false,64.84101148175677,-147.71852695404934,1.006,15.306,-2.899999996686266,1.0,0.46,-0.8999999989715999,0.0,64.91282070926617,-147.9109646927836,true,-0.0,-115.59999834202881,0.0,0.0
2017-07-18T16:16:46.728,61.13665771484375,197.2212371826172,136.08457946777344,0.0,0.0,-0.0,0.0,0.0,,true,1.0,0.0,-115.49999986802199,false,64.84101148175677,-147.71852695404934,0.992,15.308,-2.899999996686266,1.0,0.46,-0.8999999989715999,0.0,64.91282070926617,-147.9109646927836,true,-0.0,-115.59999834202881,0.0,0.0
2017-07-18T16:16:46.758,61.13665771484375,197.2212371826172,136.08457946777344,0.0,0.0,-0.0,0.0,0.0,,true,1.0,0.0,-115.49999986802199,false,64.84101148175677,-147.71852695404934,0.992,15.308,-2.899999996686266,1.0,0.46,-0.8999999989715999,0.0,64.91282070926617,-147.9109646927836,true,-0.0,-115.59999834202881,0.0,0.0
2017-07-18T16:16:46.866,61.13665771484375,197.2212371826172,136.08457946777344,0.0,0.0,-0.0,0.0,0.0,,true,1.0,0.0,-115.49999986802199,false,64.84101148175677,-147.71852695404934,0.992,15.308,-2.899999996686266,1.0,0.46,-0.8999999989715999,0.0,64.91282070926617,-147.9109646927836,true,-0.0,-115.59999834202881,0.0,0.0
2017-07-18T16:16:47.16,61.13665771484375,197.2212371826172,136.08457946777344,0.0,0.0,-0.0,0.0,0.0,,true,1.0,0.0,-115.49999986802199,false,64.84101148175677,-147.71852695404934,0.992,15.308,-2.899999996686266,1.0,0.46,-0.8999999989715999,0.0,64.91282070926617,-147.9109646927836,true,-0.0,-115.59999834202881,0.0,0.0
2017-07-18T16:16:47.94,61.13665771484375,197.2212371826172,136.08457946777344,0.0,0.0,-0.0,0.0,0.0,,true,1.0,0.0,-115.49999986802199,false,64.84101148175677,-147.71852695404934,0.992,15.308,-2.899999996686266,1.0,0.46,-0.8999999989715999,0.0,64.91282070926617,-147.9109646927836,true,-0.0,-115.59999834202881,0.0,0.0
2017-07-18T16:16:47.159,61.13665771484375,197.2212371826172,136.08457946777344,0.0,0.0,-0.0,0.0,0.0,,true,1.0,0.0,-115.49999986802199,false,64.84101148175677,-147.71852695404934,0.992,15.308,-2.899999996686266,1.0,0.46,-0.8999999989715999,0.0,64.91282070926617,-147.9109646927836,true,-0.0,-115.59999834202881,0.0,0.0
2017-07-18T16:16:47.166,61.13665771484375,197.2212371826172,136.08457946777344,0.0,0.0,-0.0,0.0,0.0,,true,1.0,0.0,-115.49999986802199,false,64.84101148175677,-147.71852695404934,0.992,15.308,-2.899999996686266,1.0,0.46,-0.8999999989715999,0.0,64.91282070926617,-147.9109646927836,true,-0.0,-115.59999834202881,0.0,0.0
2017-07-18T16:16:47.316,61.13665771484375,197.2212371826172,136.08457946777344,0.0,0.0,-0.0,0.0,0.0,,true,1.0,0.0,-115.59999986790774,false,64.84101148175677,-147.71852695404934,0.992,15.308,-2.899999996686266,1.0,0.46,-0.8999999989715999,0.0,64.91282070926617,-147.9109646927836,true,-0.0,-115.59999834202881,0.0,0.0
2017-07-18T16:16:47.468,61.13665771484375,197.2212371826172,136.08457946777344,0.0,0.0,-0.0,0.0,0.0,,true,1.0,0.0,-115.59999986790774,false,64.84101148175677,-147.71852695404934,0.992,15.308,-2.899999996686266,1.0,0.46,-0.8999999989715999,0.0,64.91282070926617,-147.9109646927836,true,-0.0,-115.59999834202881,0.0,0.0
2017-07-18T16:16:47.559,61.13665771484375,197.2212371826172,136.08457946777344,0.0,0.0,-0.0,0.0,0.0,,true,1.0,0.0,-115.59999986790774,false,64.84101148175677,-147.71852695404934,0.992,15.308,-2.899999996686266,1.0,0.46,-0.8999999989715999,0.0,64.91282070926617,-147.9109646927836,true,-0.0,-115.59999834202881,0.0,0.0
2017-07-18T16:16:47.618,61.13665771484375,197.2212371826172,136.08457946777344,0.0,0.0,-0.0,0.0,0.0,,true,1.0,0.0,-115.59999986790774,false,64.84101148175677,-147.71852695404934,0.992,15.308,-2.899999996686266,1.0,0.46,-0.8999999989715999,0.0,64.91282070926617,-147.9109646927836,true,-0.0,-115.59999834202881,0.0,0.0
2017-07-18T16:16:47.768,61.13665771484375,197.2212371826172,136.08457946777344,0.0,0.0,-0.0,0.0,0.0,,true,1.0,0.0,-115.59999986790774,false,64.84101148175677,-147.71852695404934,0.992,15.308,-2.899999996686266,1.0,0.46,-0.8999999989715999,0.0,64.91282070926617,-147.9109646927836,true,-0.0,-115.59999834202881,0.0,0.0
2017-07-18T16:16:47.894,61.13665771484375,197.2212371826172,136.08457946777344,0.0,0.0,-0.0,0.0,0.0,,true,1.0,0.0,-115.59999986790774,false,64.84101148175677,-147.71852695404934,0.992,15.308,-2.899999996686266,1.0,0.46,-0.8999999989715999,0.0,64.91282070926617,-147.9109646927836,true,-0.0,-115.59999834202881,0.0,0.0
2017-07-18T16:16:47.918,61.13665771484375,197.2212371826172,136.08457946777344,0.0,0.0,-0.0,0.0,0.0,,true,1.0,0.0,-115.19999986836478,false,64.84101148175677,-147.71852695404934,0.992,15.308,-2.2999999973718666,1.0,0.46,-0.8999999989715999,0.0,64.91282070926617,-147.9109646927836,true,-0.0,-115.59999834202881,0.0,0.0
2017-07-18T16:16:47.959,61.13665771484375,197.2212371826172,136.08457946777344,0.0,0.0,-0.0,0.0,0.0,,true,1.0,0.0,-115.19999986836478,false,64.84101148175677,-147.71852695404934,0.992,15.308,-2.2999999973718666,1.0,0.46,-0.8999999989715999,0.0,64.91282070926617,-147.9109646927836,true,-0.0,-115.59999834202881,0.0,0.0
2017-07-18T16:16:48.68,61.13665771484375,197.2212371826172,136.08457946777344,0.0,0.0,-0.0,0.0,0.0,,true,1.0,0.0,-91.99999989487465,false,64.84101148175677,-147.71852695404934,0.992,15.308,4.099999995315066,1.0,0.46,1.3999999984002665,0.0,64.91282070926617,-147.9109646927836,true,-0.0,-115.59999834202881,0.0,0.0
2017-07-18T16:16:48.218,61.13665771484375,197.2212371826172,136.08457946777344,0.0,0.0,-0.0,0.0,0.0,,true,1.0,0.0,-79.59999990904372,false,64.84101148175677,-147.71852695404934,0.992,15.308,1.1999999986288,1.0,0.46,2.6999999969148005,0.0,64.91282070926617,-147.9109646927836,true,-0.0,-115.59999834202881,0.0,0.0
2017-07-18T16:16:48.360,61.13665771484375,197.2212371826172,136.08457946777344,0.0,0.0,-0.0,0.0,0.0,,true,1.0,0.0,-79.59999990904372,false,64.84101148175677,-147.71852695404934,0.992,15.308,1.1999999986288,1.0,0.46,2.6999999969148005,0.0,64.91282070926617,-147.9109646927836,true,-0.0,-65.69999687316898,0.0,0.0
2017-07-18T16:16:48.368,61.13665771484375,197.2212371826172,136.08457946777344,0.0,0.0,-0.0,0.0,0.0,,true,1.0,0.0,-51.79999994080986,false,64.84101148175677,-147.71852695404934,0.992,15.308,0.19999999977146668,1.0,0.46,3.199999996343467,0.0,64.91282070926617,-147.9109646927836,true,-0.0,-65.69999687316898,0.0,0.0
2017-07-18T16:16:48.518,61.13665771484375,197.2212371826172,136.08457946777344,0.0,0.0,-0.0,0.0,0.0,,true,1.0,0.0,-39.19999995520746,false,64.84101148175677,-147.71852695404934,0.992,15.308,-0.5999999993144,1.0,0.46,3.6999999957721337,0.0,64.91282070926617,-147.9109646927836,true,-0.0,-65.69999687316898,0.0,0.0
2017-07-18T16:16:48.669,61.13665771484375,197.2212371826172,136.08457946777344,-0.10000000149011612,-5.384690291134369E-10,-0.0,0.0,0.0,269.99999969147996,true,1.0,0.10000000149011612,-26.0999999701764,false,64.84101148175677,-147.71852695404934,0.992,15.308,-0.09999999988573334,1.0,0.46,3.8999999955436,0.0,64.91282070926617,-147.9109646927836,true,-0.0,-65.69999687316898,0.0,0.0
2017-07-18T16:16:48.694,61.13665771484375,197.2212371826172,136.08457946777344,-0.10000000149011612,-5.384690291134369E-10,-0.0,0.0,0.0,269.99999969147996,true,1.0,0.10000000149011612,-26.0999999701764,false,64.84101148175677,-147.71852695404934,0.992,15.308,-0.09999999988573334,1.0,0.46,3.8999999955436,0.0,64.91282070926617,-147.9109646927836,true,-0.0,-65.69999687316898,0.0,0.0
2017-07-18T16:16:48.728,61.13665771484375,197.2212371826172,136.08457946777344,-0.10000000149011612,-5.384690291134369E-10,-0.0,0.0,0.0,269.99999969147996,true,1.0,0.10000000149011612,-26.0999999701764,false,64.84101148175677,-147.71852695404934,0.981,15.306,-0.09999999988573334,1.0,0.46,3.8999999955436,0.0,64.91282070926617,-147.9109646927836,true,-0.0,-65.69999687316898,0.0,0.0
2017-07-18T16:16:48.760,61.13665771484375,197.2212371826172,136.08457946777344,-0.10000000149011612,-5.384690291134369E-10,-0.0,0.0,0.0,269.99999969147996,true,1.0,0.10000000149011612,-26.0999999701764,false,64.84101148175677,-147.71852695404934,0.981,15.306,-0.09999999988573334,1.0,0.46,3.8999999955436,0.0,64.91282070926617,-147.9109646927836,true,-0.0,-33.999999961149335,0.0,0.0
2017-07-18T16:16:48.819,61.13665771484375,197.2212371826172,136.08457946777344,0.0,0.0,-0.0,0.0,0.0,269.99999969147996,true,1.0,0.0,-26.199999970062134,false,64.84101148175677,-147.71852695404934,0.981,15.306,-0.49999999942866663,1.0,0.46,2.499999997143333,0.0,64.91282070926617,-147.9109646927836,true,-0.0,-33.999999961149335,0.0,0.0
2017-07-18T16:16:48.970,61.13665771484375,197.2212371826172,136.08457946777344,0.0,0.0,0.10000000149011612,0.0,0.0,269.99999969147996,true,1.0,0.0,-24.399999972118927,false,64.84101148175677,-147.71852695404934,0.981,15.306,0.2999999996572,1.0,0.46,0.7999999990858667,0.0,64.91282070926617,-147.9109646927836,true,0.10000000149011612,-33.999999961149335,0.0,0.0
2017-07-18T16:16:49.120,61.13665771484375,197.2212371826172,136.08457946777344,0.0,0.0,0.10000000149011612,0.0,0.0,269.99999969147996,true,1.0,0.0,-22.7999999739472,false,64.84101148175677,-147.71852695404934,0.981,15.306,1.0999999987430666,1.0,0.46,0.6999999992001332,0.0,64.91282070926617,-147.9109646927836,true,0.10000000149011612,-33.999999961149335,0.0,0.0
2017-07-18T16:16:49.160,61.13665771484375,197.2212371826172,136.08457946777344,0.0,0.0,0.10000000149011612,0.0,0.0,269.99999969147996,true,1.0,0.0,-22.7999999739472,false,64.84101148175677,-147.71852695404934,0.981,15.306,1.0999999987430666,1.0,0.46,0.6999999992001332,0.0,64.91282070926617,-147.9109646927836,true,0.10000000149011612,-29.10000034821812,0.0,0.0
2017-07-18T16:16:49.271,61.13665771484375,197.2212371826172,136.08457946777344,0.0,0.0,0.10000000149011612,0.0,0.0,269.99999969147996,true,1.0,0.0,-21.799999975089865,false,64.84101148175677,-147.71852695404934,0.981,15.306,1.2999999985145334,1.0,0.46,-0.19999999977146668,0.0,64.91282070926617,-147.9109646927836,true,0.10000000149011612,-29.10000034821812,0.0,0.0
2017-07-18T16:16:49.421,61.13665771484375,197.2212371826172,136.08457946777344,0.0,0.0,0.10000000149011612,0.0,0.0,269.99999969147996,true,1.0,0.0,-21.599999975318404,false,64.84101148175677,-147.71852695404934,0.981,15.306,2.0999999976004,1.0,0.46,-2.0999999976004,0.0,64.91282070926617,-147.9109646927836,true,0.10000000149011612,-29.10000034821812,0.0,0.0
2017-07-18T16:16:49.494,61.13665771484375,197.2212371826172,136.08457946777344,0.0,0.0,0.10000000149011612,0.0,0.0,269.99999969147996,true,1.0,0.0,-21.599999975318404,false,64.84101148175677,-147.71852695404934,0.981,15.306,2.0999999976004,1.0,0.46,-2.0999999976004,0.0,64.91282070926617,-147.9109646927836,true,0.10000000149011612,-29.10000034821812,0.0,0.0
2017-07-18T16:16:49.560,61.13665771484375,197.2212371826172,136.08457946777344,0.0,0.0,0.10000000149011612,0.0,0.0,269.99999969147996,true,1.0,0.0,-21.599999975318404,false,64.84101148175677,-147.71852695404934,0.981,15.306,2.0999999976004,1.0,0.46,-2.0999999976004,0.0,64.91282070926617,-147.9109646927836,true,0.10000000149011612,-26.100000351646127,0.0,0.0
2017-07-18T16:16:49.572,61.13665771484375,197.2212371826172,136.08457946777344,0.0,0.0,0.10000000149011612,0.0,0.0,269.99999969147996,true,1.0,0.0,-22.699999974061463,false,64.84101148175677,-147.71852695404934,0.981,15.306,1.5999999981717334,1.0,0.46,-2.0999999976004,0.0,64.91282070926617,-147.9109646927836,true,0.10000000149011612,-26.100000351646127,0.0,0.0
2017-07-18T16:16:49.722,61.13665771484375,197.2212371826172,136.08457946777344,0.0,0.0,0.10000000149011612,0.0,0.0,269.99999969147996,true,1.0,0.0,-23.29999997337587,false,64.84101148175677,-147.71852695404934,0.981,15.306,1.3999999984002665,1.0,0.46,-2.0999999976004,0.0,64.91282070926617,-147.9109646927836,true,0.10000000149011612,-26.100000351646127,0.0,0.0
2017-07-18T16:16:49.873,61.13665771484375,197.2212371826172,136.08457946777344,0.0,0.0,0.10000000149011612,0.0,0.0,269.99999969147996,true,1.0,0.0,-24.2999999722332,false,64.84101148175677,-147.71852695404934,0.981,15.306,1.899999997828933,1.0,0.46,-2.3999999972576,0.0,64.91282070926617,-147.9109646927836,true,0.10000000149011612,-26.100000351646127,0.0,0.0
2017-07-18T16:16:49.961,61.13665771484375,197.2212371826172,136.08457946777344,0.0,0.0,0.10000000149011612,0.0,0.0,269.99999969147996,true,1.0,0.0,-24.2999999722332,false,64.84101148175677,-147.71852695404934,0.981,15.306,1.899999997828933,1.0,0.46,-2.3999999972576,0.0,64.91282070926617,-147.9109646927836,true,0.10000000149011612,-25.60000035221746,0.0,0.0
2017-07-18T16:16:50.22,61.13665771484375,197.2212371826172,136.08457946777344,3.589793527422913E-10,-0.10000000149011612,0.10000000149011612,0.0,0.0,179.99999979432,true,1.0,0.10000000149011612,-24.899999971547597,false,64.84101148175677,-147.71852695404934,0.981,15.306,1.6999999980574665,1.0,0.46,-2.2999999973718666,0.0,64.91282070926617,-147.9109646927836,true,0.10000000149011612,-25.60000035221746,0.0,0.0
2017-07-18T16:16:50.172,61.13665771484375,197.2212371826172,136.08457946777344,0.0,0.0,0.10000000149011612,0.0,0.0,179.99999979432,true,1.0,0.0,-25.89999997040493,false,64.84101148175677,-147.71852695404934,0.981,15.306,1.7999999979431998,1.0,0.46,-2.2999999973718666,0.0,64.91282070926617,-147.9109646927836,true,0.10000000149011612,-25.60000035221746,0.0,0.0
2017-07-18T16:16:50.295,61.13665771484375,197.2212371826172,136.08457946777344,0.0,0.0,0.10000000149011612,0.0,0.0,179.99999979432,true,1.0,0.0,-25.89999997040493,false,64.84101148175677,-147.71852695404934,0.981,15.306,1.7999999979431998,1.0,0.46,-2.2999999973718666,0.0,64.91282070926617,-147.9109646927836,true,0.10000000149011612,-25.60000035221746,0.0,0.0
2017-07-18T16:16:50.322,61.13665771484375,197.2212371826172,136.08457946777344,0.0,0.0,-0.0,0.0,0.0,179.99999979432,true,1.0,0.0,-26.399999969833594,false,64.84101148175677,-147.71852695404934,0.981,15.306,1.6999999980574665,1.0,0.46,-2.2999999973718666,0.0,64.91282070926617,-147.9109646927836,true,-0.0,-25.60000035221746,0.0,0.0
2017-07-18T16:16:50.361,61.13665771484375,197.2212371826172,136.08457946777344,0.0,0.0,-0.0,0.0,0.0,179.99999979432,true,1.0,0.0,-26.399999969833594,false,64.84101148175677,-147.71852695404934,0.981,15.306,1.6999999980574665,1.0,0.46,-2.2999999973718666,0.0,64.91282070926617,-147.9109646927836,true,-0.0,-25.60000035221746,0.0,0.0
2017-07-18T16:16:50.472,61.13665771484375,197.2212371826172,136.08457946777344,0.0,0.0,-0.0,0.0,0.0,179.99999979432,true,1.0,0.0,-27.39999996869093,false,64.84101148175677,-147.71852695404934,0.981,15.306,1.5999999981717334,1.0,0.46,-2.2999999973718666,0.0,64.91282070926617,-147.9109646927836,true,-0.0,-25.60000035221746,0.0,0.0
2017-07-18T16:16:50.623,61.13665771484375,197.2212371826172,136.08457946777344,0.0,0.0,-0.0,0.0,0.0,179.99999979432,true,1.0,0.0,-27.899999968119598,false,64.84101148175677,-147.71852695404934,0.981,15.306,1.6999999980574665,1.0,0.46,-2.2999999973718666,0.0,64.91282070926617,-147.9109646927836,true,-0.0,-25.60000035221746,0.0,0.0
2017-07-18T16:16:50.728,61.13665771484375,197.2212371826172,136.08457946777344,0.0,0.0,-0.0,0.0,0.0,179.99999979432,true,1.0,0.0,-27.899999968119598,false,64.84101148175677,-147.71852695404934,0.996,15.306,1.6999999980574665,1.0,0.46,-2.2999999973718666,0.0,64.91282070926617,-147.9109646927836,true,-0.0,-25.60000035221746,0.0,0.0
2017-07-18T16:16:50.762,61.13665771484375,197.2212371826172,136.08457946777344,0.0,0.0,-0.0,0.0,0.0,179.99999979432,true,1.0,0.0,-27.899999968119598,false,64.84101148175677,-147.71852695404934,0.996,15.306,1.6999999980574665,1.0,0.46,-2.2999999973718666,0.0,64.91282070926617,-147.9109646927836,true,-0.0,-25.89999958893521,0.0,0.0
2017-07-18T16:16:50.773,61.13665771484375,197.2212371826172,136.08457946777344,0.0,0.0,-0.0,0.0,0.0,179.99999979432,true,1.0,0.0,-28.899999966976935,false,64.84101148175677,-147.71852695404934,0.996,15.306,1.5999999981717334,1.0,0.46,-2.2999999973718666,0.0,64.91282070926617,-147.9109646927836,true,-0.0,-25.89999958893521,0.0,0.0
2017-07-18T16:16:50.923,61.13665771484375,197.2212371826172,136.08457946777344,0.0,0.0,-0.0,0.0,0.0,179.99999979432,true,1.0,0.0,-29.3999999664056,false,64.84101148175677,-147.71852695404934,0.996,15.306,1.5999999981717334,1.0,0.46,-2.2999999973718666,3.0,64.91282070926617,-147.9109646927836,true,-0.0,-25.89999958893521,0.0,0.0
2017-07-18T16:16:51.73,61.13665771484375,197.2212371826172,136.08457946777344,0.0,0.0,-0.0,0.0,0.0,179.99999979432,true,1.0,0.0,-30.39999996526293,false,64.84101148175677,-147.71852695404934,0.996,15.306,1.499999998286,1.0,0.46,-2.1999999974861333,3.0,64.91282070926617,-147.9109646927836,true,-0.0,-25.89999958893521,0.0,0.0
2017-07-18T16:16:51.95,61.13665771484375,197.2212371826172,136.08457946777344,0.0,0.0,-0.0,0.0,0.0,179.99999979432,true,1.0,0.0,-30.39999996526293,false,64.84101148175677,-147.71852695404934,0.996,15.306,1.499999998286,1.0,0.46,-2.1999999974861333,3.0,64.91282070926617,-147.9109646927836,true,-0.0,-25.89999958893521,0.0,0.0
2017-07-18T16:16:51.162,61.13665771484375,197.2212371826172,136.08457946777344,0.0,0.0,-0.0,0.0,0.0,179.99999979432,true,1.0,0.0,-30.39999996526293,false,64.84101148175677,-147.71852695404934,0.996,15.306,1.499999998286,1.0,0.46,-2.1999999974861333,3.0,64.91282070926617,-147.9109646927836,true,-0.0,-26.700000732430247,0.0,0.0
2017-07-18T16:16:51.226,61.13665771484375,197.2212371826172,136.08457946777344,0.0,0.0,-0.0,0.0,0.0,179.99999979432,true,1.0,0.0,-30.899999964691602,false,64.84101148175677,-147.71852695404934,0.996,15.306,1.499999998286,1.0,0.46,-2.1999999974861333,3.0,64.91282070926617,-147.9109646927836,true,-0.0,-26.700000732430247,0.0,0.0
2017-07-18T16:16:51.376,61.13665771484375,197.2212371826172,136.08457946777344,0.0,0.0,-0.0,0.0,0.0,179.99999979432,true,1.0,0.0,-31.89999996354893,false,64.84101148175677,-147.71852695404934,0.996,15.306,1.499999998286,1.0,0.46,-2.1999999974861333,4.0,64.91282070926617,-147.9109646927836,true,-0.0,-26.700000732430247,0.0,0.0
2017-07-18T16:16:51.526,61.13665771484375,197.2212371826172,136.08457946777344,0.0,0.0,-0.0,0.0,0.0,179.99999979432,true,1.0,0.0,-32.399999962977596,false,64.84101148175677,-147.71852695404934,0.996,15.306,1.3999999984002665,1.0,0.46,-2.1999999974861333,4.0,64.91282070926617,-147.9109646927836,true,-0.0,-26.700000732430247,0.0,0.0
2017-07-18T16:16:51.562,61.13665771484375,197.2212371826172,136.08457946777344,0.0,0.0,-0.0,0.0,0.0,179.99999979432,true,1.0,0.0,-32.399999962977596,false,64.84101148175677,-147.71852695404934,0.996,15.306,1.3999999984002665,1.0,0.46,-2.1999999974861333,4.0,64.91282070926617,-147.9109646927836,true,-0.0,-27.899999586649876,0.0,0.0
2017-07-18T16:16:51.677,61.13665771484375,197.2212371826172,136.08457946777344,0.0,0.0,-0.0,0.0,0.0,179.99999979432,true,1.0,0.0,-33.39999996183493,false,64.84101148175677,-147.71852695404934,0.996,15.306,1.3999999984002665,1.0,0.46,-2.1999999974861333,4.0,64.91282070926617,-147.9109646927836,true,-0.0,-27.899999586649876,0.0,0.0
2017-07-18T16:16:51.827,61.13665771484375,197.2212371826172,136.08457946777344,0.0,0.0,-0.0,0.0,0.0,179.99999979432,true,1.0,0.0,-33.899999961263596,false,64.84101148175677,-147.71852695404934,0.996,15.306,1.3999999984002665,1.0,0.46,-2.1999999974861333,4.0,64.91282070926617,-147.9109646927836,true,-0.0,-27.899999586649876,0.0,0.0
2017-07-18T16:16:51.895,61.13665771484375,197.2212371826172,136.08457946777344,0.0,0.0,-0.0,0.0,0.0,179.99999979432,true,1.0,0.0,-33.899999961263596,false,64.84101148175677,-147.71852695404934,0.996,15.306,1.3999999984002665,1.0,0.46,-2.1999999974861333,4.0,64.91282070926617,-147.9109646927836,true,-0.0,-27.899999586649876,0.0,0.0
2017-07-18T16:16:51.962,61.13665771484375,197.2212371826172,136.08457946777344,0.0,0.0,-0.0,0.0,0.0,179.99999979432,true,1.0,0.0,-33.899999961263596,false,64.84101148175677,-147.71852695404934,0.996,15.306,1.3999999984002665,1.0,0.46,-2.1999999974861333,4.0,64.91282070926617,-147.9109646927836,true,-0.0,-29.499999966291334,0.0,0.0
2017-07-18T16:16:51.977,61.13665771484375,197.2212371826172,136.08457946777344,0.0,0.0,-0.0,0.0,0.0,179.99999979432,true,1.0,0.0,-34.89999996012094,false,64.84101148175677,-147.71852695404934,0.996,15.306,1.2999999985145334,1.0,0.46,-2.1999999974861333,4.0,64.91282070926617,-147.9109646927836,true,-0.0,-29.499999966291334,0.0,0.0
2017-07-18T16:16:52.127,61.13665771484375,197.2212371826172,136.08457946777344,0.0,0.0,-0.0,0.0,0.0,179.99999979432,true,1.0,0.0,-35.399999959549596,false,64.84101148175677,-147.71852695404934,0.996,15.306,1.2999999985145334,1.0,0.46,-2.1999999974861333,4.0,64.91282070926617,-147.9109646927836,true,-0.0,-29.499999966291334,0.0,0.0
2017-07-18T16:16:52.277,61.13665771484375,197.2212371826172,136.08457946777344,0.0,0.0,-0.0,0.0,0.0,179.99999979432,true,1.0,0.0,-36.39999995840693,false,64.84101148175677,-147.71852695404934,0.996,15.306,1.2999999985145334,1.0,0.46,-2.1999999974861333,4.0,64.91282070926617,-147.9109646927836,true,-0.0,-29.499999966291334,0.0,0.0
2017-07-18T16:16:52.362,61.13665771484375,197.2212371826172,136.08457946777344,0.0,0.0,-0.0,0.0,0.0,179.99999979432,true,1.0,0.0,-36.39999995840693,false,64.84101148175677,-147.71852695404934,0.996,15.306,1.2999999985145334,1.0,0.46,-2.1999999974861333,4.0,64.91282070926617,-147.9109646927836,true,-0.0,-31.299999201295083,0.0,0.0
2017-07-18T16:16:52.428,61.13665771484375,197.2212371826172,136.08457946777344,0.0,0.0,-0.0,0.0,0.0,179.99999979432,true,1.0,0.0,-36.8999999578356,false,64.84101148175677,-147.71852695404934,0.996,15.306,1.2999999985145334,1.0,0.46,-2.1999999974861333,4.0,64.91282070926617,-147.9109646927836,true,-0.0,-31.299999201295083,0.0,0.0
2017-07-18T16:16:52.578,61.13665771484375,197.2212371826172,136.08457946777344,0.0,0.0,0.10000000149011612,0.0,0.0,179.99999979432,true,1.0,0.0,-37.89999995669292,false,64.84101148175677,-147.71852695404934,0.996,15.306,1.1999999986288,1.0,0.46,-2.1999999974861333,4.0,64.91282070926617,-147.9109646927836,true,0.10000000149011612,-31.299999201295083,0.0,0.0
2017-07-18T16:16:52.695,61.13665771484375,197.2212371826172,136.08457946777344,0.0,0.0,0.10000000149011612,0.0,0.0,179.99999979432,true,1.0,0.0,-37.89999995669292,false,64.84101148175677,-147.71852695404934,0.996,15.306,1.1999999986288,1.0,0.46,-2.1999999974861333,4.0,64.91282070926617,-147.9109646927836,true,0.10000000149011612,-31.299999201295083,0.0,0.0
2017-07-18T16:16:52.728,61.13665771484375,197.2212371826172,136.08457946777344,0.0,0.0,0.10000000149011612,0.0,0.0,179.99999979432,true,1.0,0.0,-37.89999995669292,false,64.84101148175677,-147.71852695404934,0.985,15.306,1.1999999986288,1.0,0.46,-2.1999999974861333,4.0,64.91282070926617,-147.9109646927836,true,0.10000000149011612,-31.299999201295083,0.0,0.0
2017-07-18T16:16:52.729,61.13665771484375,197.2212371826172,136.08457946777344,0.0,0.0,-0.0,0.0,0.0,179.99999979432,true,1.0,0.0,-38.3999999561216,false,64.84101148175677,-147.71852695404934,0.985,15.306,1.1999999986288,1.0,0.46,-2.1999999974861333,4.0,64.91282070926617,-147.9109646927836,true,-0.0,-31.299999201295083,0.0,0.0
2017-07-18T16:16:52.763,61.13665771484375,197.2212371826172,136.08457946777344,0.0,0.0,-0.0,0.0,0.0,179.99999979432,true,1.0,0.0,-38.3999999561216,false,64.84101148175677,-147.71852695404934,0.985,15.306,1.1999999986288,1.0,0.46,-2.1999999974861333,4.0,64.91282070926617,-147.9109646927836,true,-0.0,-33.20000072500292,0.0,0.0
2017-07-18T16:16:52.879,61.13665771484375,197.2212371826172,136.08457946777344,0.0,0.0,-0.0,0.0,0.0,179.99999979432,true,1.0,0.0,-39.39999995497893,false,64.84101148175677,-147.71852695404934,0.985,15.306,1.1999999986288,1.0,0.46,-2.1999999974861333,4.0,64.91282070926617,-147.9109646927836,true,-0.0,-33.20000072500292,0.0,0.0
2017-07-18T16:16:53.29,61.13665771484375,197.2212371826172,136.08457946777344,0.0,0.0,-0.0,0.0,0.0,179.99999979432,true,1.0,0.0,-39.89999995440759,false,64.84101148175677,-147.71852695404934,0.985,15.306,1.1999999986288,1.0,0.46,-2.1999999974861333,4.0,64.91282070926617,-147.9109646927836,true,-0.0,-33.20000072500292,0.0,0.0
2017-07-18T16:16:53.164,61.13665771484375,197.2212371826172,136.08457946777344,0.0,0.0,-0.0,0.0,0.0,179.99999979432,true,1.0,0.0,-39.89999995440759,false,64.84101148175677,-147.71852695404934,0.985,15.306,1.1999999986288,1.0,0.46,-2.1999999974861333,4.0,64.91282070926617,-147.9109646927836,true,-0.0,-35.20000072271758,0.0,0.0
2017-07-18T16:16:53.180,61.13665771484375,197.2212371826172,136.08457946777344,0.0,0.0,-0.0,0.0,0.0,179.99999979432,true,1.0,0.0,-40.89999995326493,false,64.84101148175677,-147.71852695404934,0.985,15.306,1.0999999987430666,1.0,0.46,-2.0999999976004,4.0,64.91282070926617,-147.9109646927836,true,-0.0,-35.20000072271758,0.0,0.0
2017-07-18T16:16:53.330,61.13665771484375,197.2212371826172,136.08457946777344,0.0,0.0,-0.0,0.0,0.0,179.99999979432,true,1.0,0.0,-41.39999995269359,false,64.84101148175677,-147.71852695404934,0.985,15.306,1.0999999987430666,1.0,0.46,-2.0999999976004,4.0,64.91282070926617,-147.9109646927836,true,-0.0,-35.20000072271758,0.0,0.0
2017-07-18T16:16:53.481,61.13665771484375,197.2212371826172,136.08457946777344,0.0,0.0,-0.0,0.0,0.0,179.99999979432,true,1.0,0.0,-42.399999951550924,false,64.84101148175677,-147.71852695404934,0.985,15.306,1.0999999987430666,1.0,0.46,-2.0999999976004,4.0,64.91282070926617,-147.9109646927836,true,-0.0,-35.20000072271758,0.0,0.0
2017-07-18T16:16:53.495,61.13665771484375,197.2212371826172,136.08457946777344,0.0,0.0,-0.0,0.0,0.0,179.99999979432,true,1.0,0.0,-42.399999951550924,false,64.84101148175677,-147.71852695404934,0.985,15.306,1.0999999987430666,1.0,0.46,-2.0999999976004,4.0,64.91282070926617,-147.9109646927836,true,-0.0,-35.20000072271758,0.0,0.0
2017-07-18T16:16:53.564,61.13665771484375,197.2212371826172,136.08457946777344,0.0,0.0,-0.0,0.0,0.0,179.99999979432,true,1.0,0.0,-42.399999951550924,false,64.84101148175677,-147.71852695404934,0.985,15.306,1.0999999987430666,1.0,0.46,-2.0999999976004,4.0,64.91282070926617,-147.9109646927836,true,-0.0,-37.20000072043225,0.0,0.0
2017-07-18T16:16:53.632,61.13665771484375,197.2212371826172,136.08457946777344,0.0,0.0,-0.0,0.0,0.0,179.99999979432,true,1.0,0.0,-42.8999999509796,false,64.84101148175677,-147.71852695404934,0.985,15.306,1.0999999987430666,1.0,0.46,-2.0999999976004,4.0,64.91282070926617,-147.9109646927836,true,-0.0,-37.20000072043225,0.0,0.0
2017-07-18T16:16:53.783,61.13665771484375,197.2212371826172,136.08457946777344,0.0,0.0,-0.0,0.0,0.0,179.99999979432,true,1.0,0.0,-43.899999949836925,false,64.84101148175677,-147.71852695404934,0.985,15.306,1.0999999987430666,1.0,0.46,-2.0999999976004,4.0,64.91282070926617,-147.9109646927836,true,-0.0,-37.20000072043225,0.0,0.0
2017-07-18T16:16:53.933,61.13665771484375,197.2212371826172,136.08457946777344,0.0,0.0,-0.0,0.0,0.0,179.99999979432,true,1.0,0.0,-44.3999999492656,false,64.84101148175677,-147.71852695404934,0.985,15.306,1.0999999987430666,1.0,0.46,-2.0999999976004,4.0,64.91282070926617,-147.9109646927836,true,-0.0,-37.20000072043225,0.0,0.0
2017-07-18T16:16:53.964,61.13665771484375,197.2212371826172,136.08457946777344,0.0,0.0,-0.0,0.0,0.0,179.99999979432,true,1.0,0.0,-44.3999999492656,false,64.84101148175677,-147.71852695404934,0.985,15.306,1.0999999987430666,1.0,0.46,-2.0999999976004,4.0,64.91282070926617,-147.9109646927836,true,-0.0,-39.20000071814692,0.0,0.0
2017-07-18T16:16:54.83,61.13665771484375,197.2212371826172,136.08457946777344,0.0,0.0,-0.0,0.0,0.0,179.99999979432,true,1.0,0.0,-45.399999948122925,false,64.84101148175677,-147.71852695404934,0.985,15.306,0.9999999988573333,1.0,0.46,-2.0999999976004,4.0,64.91282070926617,-147.9109646927836,true,-0.0,-39.20000071814692,0.0,0.0
2017-07-18T16:16:54.233,61.13665771484375,197.2212371826172,136.08457946777344,0.0,0.0,-0.0,0.0,0.0,179.99999979432,true,1.0,0.0,-45.8999999475516,false,64.84101148175677,-147.71852695404934,0.985,15.306,0.9999999988573333,1.0,0.46,-2.0999999976004,4.0,64.91282070926617,-147.9109646927836,true,-0.0,-39.20000071814692,0.0,0.0
2017-07-18T16:16:54.295,61.13665771484375,197.2212371826172,136.08457946777344,0.0,0.0,-0.0,0.0,0.0,179.99999979432,true,1.0,0.0,-45.8999999475516,false,64.84101148175677,-147.71852695404934,0.985,15.306,0.9999999988573333,1.0,0.46,-2.0999999976004,4.0,64.91282070926617,-147.9109646927836,true,-0.0,-39.20000071814692,0.0,0.0
2017-07-18T16:16:54.364,61.13665771484375,197.2212371826172,136.08457946777344,0.0,0.0,-0.0,0.0,0.0,179.99999979432,true,1.0,0.0,-45.8999999475516,false,64.84101148175677,-147.71852695404934,0.985,15.306,0.9999999988573333,1.0,0.46,-2.0999999976004,4.0,64.91282070926617,-147.9109646927836,true,-0.0,-41.200000715861584,0.0,0.0
2017-07-18T16:16:54.385,61.13665771484375,197.2212371826172,136.08457946777344,0.0,0.0,-0.0,0.0,0.0,179.99999979432,true,1.0,0.0,-46.899999946408926,false,64.84101148175677,-147.71852695404934,0.985,15.306,0.9999999988573333,1.0,0.46,-2.0999999976004,4.0,64.91282070926617,-147.9109646927836,true,-0.0,-41.200000715861584,0.0,0.0
2017-07-18T16:16:54.535,61.13665771484375,197.2212371826172,136.08457946777344,0.0,0.0,-0.0,0.0,0.0,179.99999979432,true,1.0,0.0,-47.3999999458376,false,64.84101148175677,-147.71852695404934,0.985,15.306,0.9999999988573333,1.0,0.46,-2.0999999976004,4.0,64.91282070926617,-147.9109646927836,true,-0.0,-41.200000715861584,0.0,0.0
2017-07-18T16:16:54.686,61.13665771484375,197.2212371826172,136.08457946777344,0.0,0.0,-0.0,0.0,0.0,179.99999979432,true,1.0,0.0,-48.39999994469493,false,64.84101148175677,-147.71852695404934,0.985,15.306,0.9999999988573333,1.0,0.46,-2.0999999976004,4.0,64.91282070926617,-147.9109646927836,true,-0.0,-41.200000715861584,0.0,0.0
2017-07-18T16:16:54.728,61.13665771484375,197.2212371826172,136.08457946777344,0.0,0.0,-0.0,0.0,0.0,179.99999979432,true,1.0,0.0,-48.39999994469493,false,64.84101148175677,-147.71852695404934,0.996,15.305,0.9999999988573333,1.0,0.46,-2.0999999976004,4.0,64.91282070926617,-147.9109646927836,true,-0.0,-41.200000715861584,0.0,0.0
2017-07-18T16:16:54.764,61.13665771484375,197.2212371826172,136.08457946777344,0.0,0.0,-0.0,0.0,0.0,179.99999979432,true,1.0,0.0,-48.39999994469493,false,64.84101148175677,-147.71852695404934,0.996,15.305,0.9999999988573333,1.0,0.46,-2.0999999976004,4.0,64.91282070926617,-147.9109646927836,true,-0.0,-43.20000071357625,0.0,0.0
2017-07-18T16:16:54.837,61.13665771484375,197.2212371826172,136.08457946777344,0.0,0.0,-0.0,0.0,0.0,179.99999979432,true,1.0,0.0,-48.89999994412359,false,64.84101148175677,-147.71852695404934,0.996,15.305,0.9999999988573333,1.0,0.46,-2.0999999976004,4.0,64.91282070926617,-147.9109646927836,true,-0.0,-43.20000071357625,0.0,0.0
2017-07-18T16:16:54.987,61.13665771484375,197.2212371826172,136.08457946777344,0.0,0.0,-0.0,0.0,0.0,179.99999979432,true,1.0,0.0,-49.899999942980934,false,64.84101148175677,-147.71852695404934,0.996,15.305,0.8999999989715999,1.0,0.46,-2.0999999976004,4.0,64.91282070926617,-147.9109646927836,true,-0.0,-43.20000071357625,0.0,0.0
2017-07-18T16:16:55.95,61.13665771484375,197.2212371826172,136.08457946777344,0.0,0.0,-0.0,0.0,0.0,179.99999979432,true,1.0,0.0,-49.899999942980934,false,64.84101148175677,-147.71852695404934,0.996,15.305,0.8999999989715999,1.0,0.46,-2.0999999976004,4.0,64.91282070926617,-147.9109646927836,true,-0.0,-43.20000071357625,0.0,0.0
2017-07-18T16:16:55.137,61.13665771484375,197.2212371826172,136.08457946777344,0.0,0.0,-0.0,0.0,0.0,179.99999979432,true,1.0,0.0,-50.89999994183826,false,64.84101148175677,-147.71852695404934,0.996,15.305,0.8999999989715999,1.0,0.46,-2.0999999976004,4.0,64.91282070926617,-147.9109646927836,true,-0.0,-43.20000071357625,0.0,0.0
2017-07-18T16:16:55.164,61.13665771484375,197.2212371826172,136.08457946777344,0.0,0.0,-0.0,0.0,0.0,179.99999979432,true,1.0,0.0,-50.89999994183826,false,64.84101148175677,-147.71852695404934,0.996,15.305,0.8999999989715999,1.0,0.46,-2.0999999976004,4.0,64.91282070926617,-147.9109646927836,true,-0.0,-45.20000071129091,0.0,0.0
2017-07-18T16:16:55.287,61.13665771484375,197.2212371826172,136.08457946777344,0.0,0.0,-0.0,0.0,0.0,179.99999979432,true,1.0,0.0,-51.39999994126693,false,64.84101148175677,-147.71852695404934,0.996,15.305,0.8999999989715999,1.0,0.46,-2.0999999976004,4.0,64.91282070926617,-147.9109646927836,true,-0.0,-45.20000071129091,0.0,0.0
2017-07-18T16:16:55.437,61.13665771484375,197.2212371826172,136.08457946777344,0.0,0.0,-0.0,0.0,0.0,179.99999979432,true,1.0,0.0,-51.8999999406956,false,64.84101148175677,-147.71852695404934,0.996,15.305,0.8999999989715999,1.0,0.46,-2.0999999976004,4.0,64.91282070926617,-147.9109646927836,true,-0.0,-45.20000071129091,0.0,0.0
2017-07-18T16:16:55.565,61.13665771484375,197.2212371826172,136.08457946777344,0.0,0.0,-0.0,0.0,0.0,179.99999979432,true,1.0,0.0,-51.8999999406956,false,64.84101148175677,-147.71852695404934,0.996,15.305,0.8999999989715999,1.0,0.46,-2.0999999976004,4.0,64.91282070926617,-147.9109646927836,true,-0.0,-47.200000709005586,0.0,0.0
2017-07-18T16:16:55.587,61.13665771484375,197.2212371826172,136.08457946777344,0.0,0.0,-0.0,0.0,0.0,179.99999979432,true,1.0,0.0,-52.89999993955293,false,64.84101148175677,-147.71852695404934,0.996,15.305,0.8999999989715999,1.0,0.46,-2.0999999976004,4.0,64.91282070926617,-147.9109646927836,true,-0.0,-47.200000709005586,0.0,0.0
2017-07-18T16:16:55.737,61.13665771484375,197.2212371826172,136.08457946777344,0.0,0.0,-0.0,0.0,0.0,179.99999979432,true,1.0,0.0,-53.3999999389816,false,64.84101148175677,-147.71852695404934,0.996,15.305,0.8999999989715999,1.0,0.46,-2.0999999976004,4.0,64.91282070926617,-147.9109646927836,true,-0.0,-47.200000709005586,0.0,0.0
2017-07-18T16:16:55.887,61.13665771484375,197.2212371826172,136.08457946777344,0.0,0.0,-0.0,0.0,0.0,179.99999979432,true,1.0,0.0,-54.39999993783893,false,64.84101148175677,-147.71852695404934,0.996,15.305,0.8999999989715999,1.0,0.46,-2.0999999976004,4.0,64.91282070926617,-147.9109646927836,true,-0.0,-47.200000709005586,0.0,0.0
2017-07-18T16:16:55.895,61.13665771484375,197.2212371826172,136.08457946777344,0.0,0.0,-0.0,0.0,0.0,179.99999979432,true,1.0,0.0,-54.39999993783893,false,64.84101148175677,-147.71852695404934,0.996,15.305,0.8999999989715999,1.0,0.46,-2.0999999976004,4.0,64.91282070926617,-147.9109646927836,true,-0.0,-47.200000709005586,0.0,0.0
2017-07-18T16:16:55.965,61.13665771484375,197.2212371826172,136.08457946777344,0.0,0.0,-0.0,0.0,0.0,179.99999979432,true,1.0,0.0,-54.39999993783893,false,64.84101148175677,-147.71852695404934,0.996,15.305,0.8999999989715999,1.0,0.46,-2.0999999976004,4.0,64.91282070926617,-147.9109646927836,true,-0.0,-49.200000706720246,0.0,0.0
2017-07-18T16:16:56.37,61.13665771484375,197.2212371826172,136.08457946777344,0.0,0.0,-0.0,0.0,0.0,179.99999979432,true,1.0,0.0,-54.899999937267594,false,64.84101148175677,-147.71852695404934,0.996,15.305,0.8999999989715999,1.0,0.46,-2.0999999976004,4.0,64.91282070926617,-147.9109646927836,true,-0.0,-49.200000706720246,0.0,0.0
2017-07-18T16:16:56.187,61.13665771484375,197.2212371826172,136.08457946777344,0.0,0.0,-0.0,0.0,0.0,179.99999979432,true,1.0,0.0,-55.89999993612493,false,64.84101148175677,-147.71852695404934,0.996,15.305,0.7999999990858667,1.0,0.46,-1.9999999977146665,4.0,64.91282070926617,-147.9109646927836,true,-0.0,-49.200000706720246,0.0,0.0
2017-07-18T16:16:56.338,61.13665771484375,197.2212371826172,136.08457946777344,0.0,0.0,-0.0,0.0,0.0,179.99999979432,true,1.0,0.0,-56.399999935553595,false,64.84101148175677,-147.71852695404934,0.996,15.305,0.7999999990858667,1.0,0.46,-1.9999999977146665,4.0,64.91282070926617,-147.9109646927836,true,-0.0,-49.200000706720246,0.0,0.0
2017-07-18T16:16:56.365,61.13665771484375,197.2212371826172,136.08457946777344,0.0,0.0,-0.0,0.0,0.0,179.99999979432,true,1.0,0.0,-56.399999935553595,false,64.84101148175677,-147.71852695404934,0.996,15.305,0.7999999990858667,1.0,0.46,-1.9999999977146665,4.0,64.91282070926617,-147.9109646927836,true,-0.0,-51.20000070443492,0.0,0.0
2017-07-18T16:16:56.488,61.13665771484375,197.2212371826172,136.08457946777344,0.0,0.0,-0.0,0.0,0.0,179.99999979432,true,1.0,0.0,-56.899999934982255,false,64.84101148175677,-147.71852695404934,0.996,15.305,0.7999999990858667,1.0,0.46,-1.9999999977146665,4.0,64.91282070926617,-147.9109646927836,true,-0.0,-51.20000070443492,0.0,0.0
2017-07-18T16:16:56.638,61.13665771484375,197.2212371826172,136.08457946777344,0.0,0.0,-0.0,0.0,0.0,179.99999979432,true,1.0,0.0,-57.899999933839595,false,64.84101148175677,-147.71852695404934,0.996,15.305,0.7999999990858667,1.0,0.46,-1.9999999977146665,3.0,64.91282070926617,-147.9109646927836,true,-0.0,-51.20000070443492,0.0,0.0
2017-07-18T16:16:56.695,61.13665771484375,197.2212371826172,136.08457946777344,0.0,0.0,-0.0,0.0,0.0,179.99999979432,true,1.0,0.0,-57.899999933839595,false,64.84101148175677,-147.71852695404934,0.996,15.305,0.7999999990858667,1.0,0.46,-1.9999999977146665,3.0,64.91282070926617,-147.9109646927836,true,-0.0,-51.20000070443492,0.0,0.0
2017-07-18T16:16:56.728,61.13665771484375,197.2212371826172,136.08457946777344,0.0,0.0,-0.0,0.0,0.0,179.99999979432,true,1.0,0.0,-57.899999933839595,false,64.84101148175677,-147.71852695404934,0.993,15.304,0.7999999990858667,1.0,0.46,-1.9999999977146665,3.0,64.91282070926617,-147.9109646927836,true,-0.0,-51.20000070443492,0.0,0.0
2017-07-18T16:16:56.766,61.13665771484375,197.2212371826172,136.08457946777344,0.0,0.0,-0.0,0.0,0.0,179.99999979432,true,1.0,0.0,-57.899999933839595,false,64.84101148175677,-147.71852695404934,0.993,15.304,0.7999999990858667,1.0,0.46,-1.9999999977146665,3.0,64.91282070926617,-147.9109646927836,true,-0.0,-53.20000070214958,0.0,0.0
2017-07-18T16:16:56.789,61.13665771484375,197.2212371826172,136.08457946777344,0.0,0.0,-0.0,0.0,0.0,179.99999979432,true,1.0,0.0,-58.89999993269693,false,64.84101148175677,-147.71852695404934,0.993,15.304,0.7999999990858667,1.0,0.46,-1.9999999977146665,3.0,64.91282070926617,-147.9109646927836,true,-0.0,-53.20000070214958,0.0,0.0
2017-07-18T16:16:56.940,61.13665771484375,197.2212371826172,136.08457946777344,0.0,0.0,-0.0,0.0,0.0,179.99999979432,true,1.0,0.0,-59.399999932125596,false,64.84101148175677,-147.71852695404934,0.993,15.304,0.7999999990858667,1.0,0.46,-1.9999999977146665,3.0,64.91282070926617,-147.9109646927836,true,-0.0,-53.20000070214958,0.0,0.0
2017-07-18T16:16:57.90,61.13665771484375,197.2212371826172,136.08457946777344,0.0,0.0,-0.0,0.0,0.0,179.99999979432,true,1.0,0.0,-60.39999993098292,false,64.84101148175677,-147.71852695404934,0.993,15.304,0.7999999990858667,1.0,0.46,-1.9999999977146665,3.0,64.91282070926617,-147.9109646927836,true,-0.0,-53.20000070214958,0.0,0.0
2017-07-18T16:16:57.166,61.13665771484375,197.2212371826172,136.08457946777344,0.0,0.0,-0.0,0.0,0.0,179.99999979432,true,1.0,0.0,-60.39999993098292,false,64.84101148175677,-147.71852695404934,0.993,15.304,0.7999999990858667,1.0,0.46,-1.9999999977146665,3.0,64.91282070926617,-147.9109646927836,true,-0.0,-55.20000069986424,0.0,0.0
2017-07-18T16:16:57.240,61.13665771484375,197.2212371826172,136.08457946777344,0.0,0.0,-0.0,0.0,0.0,179.99999979432,true,1.0,0.0,-60.39999993098292,false,64.84101148175677,-147.71852695404934,0.993,15.304,0.7999999990858667,1.0,0.46,-1.9999999977146665,3.0,64.91282070926617,-147.9109646927836,true,-0.0,-55.20000069986424,0.0,0.0
2017-07-18T16:16:57.391,61.13665771484375,197.2212371826172,136.08457946777344,0.0,0.0,-0.0,0.0,0.0,179.99999979432,true,1.0,0.0,-61.399999929840256,false,64.84101148175677,-147.71852695404934,0.993,15.304,0.6999999992001332,1.0,0.46,-1.9999999977146665,3.0,64.91282070926617,-147.9109646927836,true,-0.0,-55.20000069986424,0.0,0.0
2017-07-18T16:16:57.495,61.13665771484375,197.2212371826172,136.08457946777344,0.0,0.0,-0.0,0.0,0.0,179.99999979432,true,1.0,0.0,-61.399999929840256,false,64.84101148175677,-147.71852695404934,0.993,15.304,0.6999999992001332,1.0,0.46,-1.9999999977146665,3.0,64.91282070926617,-147.9109646927836,true,-0.0,-55.20000069986424,0.0,0.0
2017-07-18T16:16:57.541,61.13665771484375,197.2212371826172,136.08457946777344,0.0,0.0,-0.0,0.0,0.0,179.99999979432,true,1.0,0.0,-62.89999992812626,false,64.84101148175677,-147.71852695404934,0.993,15.304,0.6999999992001332,1.0,0.46,-1.9999999977146665,3.0,64.91282070926617,-147.9109646927836,true,-0.0,-55.20000069986424,0.0,0.0
2017-07-18T16:16:57.568,61.13665771484375,197.2212371826172,136.08457946777344,0.0,0.0,-0.0,0.0,0.0,179.99999979432,true,1.0,0.0,-62.89999992812626,false,64.84101148175677,-147.71852695404934,0.993,15.304,0.6999999992001332,1.0,0.46,-1.9999999977146665,3.0,64.91282070926617,-147.9109646927836,true,-0.0,-57.200000697578915,0.0,0.0
2017-07-18T16:16:57.693,61.13665771484375,197.2212371826172,136.08457946777344,0.0,0.0,-0.0,0.0,0.0,179.99999979432,true,1.0,0.0,-63.39999992755493,false,64.84101148175677,-147.71852695404934,0.993,15.304,0.6999999992001332,1.0,0.46,-1.9999999977146665,3.0,64.91282070926617,-147.9109646927836,true,-0.0,-57.200000697578915,0.0,0.0
2017-07-18T16:16:57.843,61.13665771484375,197.2212371826172,136.08457946777344,0.0,0.0,-0.0,0.0,0.0,179.99999979432,true,1.0,0.0,-64.39999992641228,false,64.84101148175677,-147.71852695404934,0.993,15.304,0.6999999992001332,1.0,0.46,-1.9999999977146665,3.0,64.91282070926617,-147.9109646927836,true,-0.0,-57.200000697578915,0.0,0.0
2017-07-18T16:16:57.969,61.13665771484375,197.2212371826172,136.08457946777344,0.0,0.0,-0.0,0.0,0.0,179.99999979432,true,1.0,0.0,-64.39999992641228,false,64.84101148175677,-147.71852695404934,0.993,15.304,0.6999999992001332,1.0,0.46,-1.9999999977146665,3.0,64.91282070926617,-147.9109646927836,true,-0.0,-59.20000069529358,0.0,0.0
2017-07-18T16:16:57.993,61.13665771484375,197.2212371826172,136.08457946777344,0.0,0.0,-0.0,0.0,0.0,179.99999979432,true,1.0,0.0,-64.89999992584093,false,64.84101148175677,-147.71852695404934,0.993,15.304,0.6999999992001332,1.0,0.46,-1.9999999977146665,3.0,64.91282070926617,-147.9109646927836,true,-0.0,-59.20000069529358,0.0,0.0
2017-07-18T16:16:58.143,61.13665771484375,197.2212371826172,136.08457946777344,0.0,0.0,-0.0,0.0,0.0,179.99999979432,true,1.0,0.0,-65.89999992469826,false,64.84101148175677,-147.71852695404934,0.993,15.304,0.6999999992001332,1.0,0.46,-1.9999999977146665,3.0,64.91282070926617,-147.9109646927836,true,-0.0,-59.20000069529358,0.0,0.0
2017-07-18T16:16:58.293,61.13665771484375,197.2212371826172,136.08457946777344,0.0,0.0,-0.0,0.0,0.0,179.99999979432,true,1.0,0.0,-66.39999992412693,false,64.84101148175677,-147.71852695404934,0.993,15.304,0.6999999992001332,1.0,0.46,-1.9999999977146665,3.0,64.91282070926617,-147.9109646927836,true,-0.0,-59.20000069529358,0.0,0.0
2017-07-18T16:16:58.295,61.13665771484375,197.2212371826172,136.08457946777344,0.0,0.0,-0.0,0.0,0.0,179.99999979432,true,1.0,0.0,-66.39999992412693,false,64.84101148175677,-147.71852695404934,0.993,15.304,0.6999999992001332,1.0,0.46,-1.9999999977146665,3.0,64.91282070926617,-147.9109646927836,true,-0.0,-59.20000069529358,0.0,0.0
2017-07-18T16:16:58.370,61.13665771484375,197.2212371826172,136.08457946777344,0.0,0.0,-0.0,0.0,0.0,179.99999979432,true,1.0,0.0,-66.39999992412693,false,64.84101148175677,-147.71852695404934,0.993,15.304,0.6999999992001332,1.0,0.46,-1.9999999977146665,3.0,64.91282070926617,-147.9109646927836,true,-0.0,-61.20000069300825,0.0,0.0
2017-07-18T16:16:58.443,61.13665771484375,197.2212371826172,136.08457946777344,0.0,0.0,-0.0,0.0,0.0,179.99999979432,true,1.0,0.0,-67.39999992298426,false,64.84101148175677,-147.71852695404934,0.993,15.304,0.6999999992001332,1.0,0.46,-1.9999999977146665,3.0,64.91282070926617,-147.9109646927836,true,-0.0,-61.20000069300825,0.0,0.0
2017-07-18T16:16:58.595,61.13665771484375,197.2212371826172,136.08457946777344,0.0,0.0,-0.0,0.0,0.0,179.99999979432,true,1.0,0.0,-67.89999992241295,false,64.84101148175677,-147.71852695404934,0.993,15.304,0.6999999992001332,1.0,0.46,-1.9999999977146665,3.0,64.91282070926617,-147.9109646927836,true,-0.0,-61.20000069300825,0.0,0.0
2017-07-18T16:16:58.728,61.13665771484375,197.2212371826172,136.08457946777344,0.0,0.0,-0.0,0.0,0.0,179.99999979432,true,1.0,0.0,-67.89999992241295,false,64.84101148175677,-147.71852695404934,1.001,15.303,0.6999999992001332,1.0,0.46,-1.9999999977146665,3.0,64.91282070926617,-147.9109646927836,true,-0.0,-61.20000069300825,0.0,0.0
2017-07-18T16:16:58.745,61.13665771484375,197.2212371826172,136.08457946777344,0.0,0.0,-0.0,0.0,0.0,179.99999979432,true,1.0,0.0,-68.89999992127026,false,64.84101148175677,-147.71852695404934,1.001,15.303,0.6999999992001332,1.0,0.46,-1.9999999977146665,3.0,64.91282070926617,-147.9109646927836,true,-0.0,-61.20000069300825,0.0,0.0
2017-07-18T16:16:58.770,61.13665771484375,197.2212371826172,136.08457946777344,0.0,0.0,-0.0,0.0,0.0,179.99999979432,true,1.0,0.0,-68.89999992127026,false,64.84101148175677,-147.71852695404934,1.001,15.303,0.6999999992001332,1.0,0.46,-1.9999999977146665,3.0,64.91282070926617,-147.9109646927836,true,-0.0,-63.200000690722916,0.0,0.0
2017-07-18T16:16:58.895,61.13665771484375,197.2212371826172,136.08457946777344,0.0,0.0,-0.0,0.0,0.0,179.99999979432,true,1.0,0.0,-69.39999992069893,false,64.84101148175677,-147.71852695404934,1.001,15.303,0.5999999993144,1.0,0.46,-1.9999999977146665,3.0,64.91282070926617,-147.9109646927836,true,-0.0,-63.200000690722916,0.0,0.0
2017-07-18T16:16:59.45,61.13665771484375,197.2212371826172,136.08457946777344,0.0,0.0,-0.0,0.0,0.0,179.99999979432,true,1.0,0.0,-70.39999991955627,false,64.84101148175677,-147.71852695404934,1.001,15.303,0.5999999993144,1.0,0.46,-1.9999999977146665,4.0,64.91282070926617,-147.9109646927836,true,-0.0,-63.200000690722916,0.0,0.0
2017-07-18T16:16:59.95,61.13665771484375,197.2212371826172,136.08457946777344,0.0,0.0,-0.0,0.0,0.0,179.99999979432,true,1.0,0.0,-70.39999991955627,false,64.84101148175677,-147.71852695404934,1.001,15.303,0.5999999993144,1.0,0.46,-1.9999999977146665,4.0,64.91282070926617,-147.9109646927836,true,-0.0,-63.200000690722916,0.0,0.0
2017-07-18T16:16:59.170,61.13665771484375,197.2212371826172,136.08457946777344,0.0,0.0,-0.0,0.0,0.0,179.99999979432,true,1.0,0.0,-70.39999991955627,false,64.84101148175677,-147.71852695404934,1.001,15.303,0.5999999993144,1.0,0.46,-1.9999999977146665,4.0,64.91282070926617,-147.9109646927836,true,-0.0,-65.19999687374032,0.0,0.0
2017-07-18T16:16:59.195,61.13665771484375,197.2212371826172,136.08457946777344,0.0,0.0,-0.0,0.0,0.0,179.99999979432,true,1.0,0.0,-70.89999991898493,false,64.84101148175677,-147.71852695404934,1.001,15.303,0.5999999993144,1.0,0.46,-1.9999999977146665,4.0,64.91282070926617,-147.9109646927836,true,-0.0,-65.19999687374032,0.0,0.0
2017-07-18T16:16:59.345,61.13665771484375,197.2212371826172,136.08457946777344,0.0,0.0,-0.0,0.0,0.0,179.99999979432,true,1.0,0.0,-71.89999991784227,false,64.84101148175677,-147.71852695404934,1.001,15.303,0.5999999993144,1.0,0.46,-1.9999999977146665,4.0,64.91282070926617,-147.9109646927836,true,-0.0,-65.19999687374032,0.0,0.0
2017-07-18T16:16:59.496,61.13665771484375,197.2212371826172,136.08457946777344,0.0,0.0,-0.0,0.0,0.0,179.99999979432,true,1.0,0.0,-72.39999991727095,false,64.84101148175677,-147.71852695404934,1.001,15.303,0.5999999993144,1.0,0.46,-1.9999999977146665,4.0,64.91282070926617,-147.9109646927836,true,-0.0,-65.19999687374032,0.0,0.0
2017-07-18T16:16:59.570,61.13665771484375,197.2212371826172,136.08457946777344,0.0,0.0,-0.0,0.0,0.0,179.99999979432,true,1.0,0.0,-72.39999991727095,false,64.84101148175677,-147.71852695404934,1.001,15.303,0.5999999993144,1.0,0.46,-1.9999999977146665,4.0,64.91282070926617,-147.9109646927836,true,-0.0,-67.19999687145499,0.0,0.0
2017-07-18T16:16:59.646,61.13665771484375,197.2212371826172,136.08457946777344,0.0,0.0,-0.0,0.0,0.0,179.99999979432,true,1.0,0.0,-73.39999991612827,false,64.84101148175677,-147.71852695404934,1.001,15.303,0.5999999993144,1.0,0.46,-1.9999999977146665,4.0,64.91282070926617,-147.9109646927836,true,-0.0,-67.19999687145499,0.0,0.0
2017-07-18T16:16:59.796,61.13665771484375,197.2212371826172,136.08457946777344,0.0,0.0,-0.0,0.0,0.0,179.99999979432,true,1.0,0.0,-73.89999991555693,false,64.84101148175677,-147.71852695404934,1.001,15.303,0.5999999993144,1.0,0.46,-1.9999999977146665,4.0,64.91282070926617,-147.9109646927836,true,-0.0,-67.19999687145499,0.0,0.0
2017-07-18T16:16:59.905,61.13665771484375,197.2212371826172,136.08457946777344,0.0,0.0,-0.0,0.0,0.0,179.99999979432,true,1.0,0.0,-73.89999991555693,false,64.84101148175677,-147.71852695404934,1.001,15.303,0.5999999993144,1.0,0.46,-1.9999999977146665,4.0,64.91282070926617,-147.9109646927836,true,-0.0,-67.19999687145499,0.0,0.0
2017-07-18T16:16:59.946,61.13665771484375,197.2212371826172,136.08457946777344,0.0,0.0,-0.0,0.0,0.0,179.99999979432,true,1.0,0.0,-74.89999991441427,false,64.84101148175677,-147.71852695404934,1.001,15.303,0.5999999993144,1.0,0.46,-1.9999999977146665,4.0,64.91282070926617,-147.9109646927836,true,-0.0,-67.19999687145499,0.0,0.0
2017-07-18T16:16:59.970,61.13665771484375,197.2212371826172,136.08457946777344,0.0,0.0,-0.0,0.0,0.0,179.99999979432,true,1.0,0.0,-74.89999991441427,false,64.84101148175677,-147.71852695404934,1.001,15.303,0.5999999993144,1.0,0.46,-1.9999999977146665,4.0,64.91282070926617,-147.9109646927836,true,-0.0,-69.19999686916965,0.0,0.0
2017-07-18T16:17:00.96,61.13665771484375,197.2212371826172,136.08457946777344,0.0,0.0,-0.0,0.0,0.0,179.99999979432,true,1.0,0.0,-75.39999991384293,false,64.84101148175677,-147.71852695404934,1.001,15.303,0.5999999993144,1.0,0.46,-1.9999999977146665,4.0,64.91282070926617,-147.9109646927836,true,-0.0,-69.19999686916965,0.0,0.0
2017-07-18T16:17:00.246,61.13665771484375,197.2212371826172,136.08457946777344,0.0,0.0,-0.0,0.0,0.0,179.99999979432,true,1.0,0.0,-76.39999991270027,false,64.84101148175677,-147.71852695404934,1.001,15.303,0.5999999993144,1.0,0.46,-1.9999999977146665,4.0,64.91282070926617,-147.9109646927836,true,-0.0,-69.19999686916965,0.0,0.0
2017-07-18T16:17:00.370,61.13665771484375,197.2212371826172,136.08457946777344,0.0,0.0,-0.0,0.0,0.0,179.99999979432,true,1.0,0.0,-76.39999991270027,false,64.84101148175677,-147.71852695404934,1.001,15.303,0.5999999993144,1.0,0.46,-1.9999999977146665,4.0,64.91282070926617,-147.9109646927836,true,-0.0,-71.19999686688432,0.0,0.0
2017-07-18T16:17:00.398,61.13665771484375,197.2212371826172,136.08457946777344,0.0,0.0,-0.0,0.0,0.0,179.99999979432,true,1.0,0.0,-76.89999991212893,false,64.84101148175677,-147.71852695404934,1.001,15.303,0.5999999993144,1.0,0.46,-1.9999999977146665,4.0,64.91282070926617,-147.9109646927836,true,-0.0,-71.19999686688432,0.0,0.0
2017-07-18T16:17:00.548,61.13665771484375,197.2212371826172,136.08457946777344,0.0,0.0,-0.0,0.0,0.0,179.99999979432,true,1.0,0.0,-77.89999991098627,false,64.84101148175677,-147.71852695404934,1.001,15.303,0.5999999993144,1.0,0.46,-1.9999999977146665,4.0,64.91282070926617,-147.9109646927836,true,-0.0,-71.19999686688432,0.0,0.0
2017-07-18T16:17:00.698,61.13665771484375,197.2212371826172,136.08457946777344,0.0,0.0,-0.0,0.0,0.0,179.99999979432,true,1.0,0.0,-78.39999991041492,false,64.84101148175677,-147.71852695404934,1.001,15.303,0.5999999993144,1.0,0.46,-1.9999999977146665,4.0,64.91282070926617,-147.9109646927836,true,-0.0,-71.19999686688432,0.0,0.0
2017-07-18T16:17:00.709,61.13665771484375,197.2212371826172,136.08457946777344,0.0,0.0,-0.0,0.0,0.0,179.99999979432,true,1.0,0.0,-78.39999991041492,false,64.84101148175677,-147.71852695404934,1.001,15.303,0.5999999993144,1.0,0.46,-1.9999999977146665,4.0,64.91282070926617,-147.9109646927836,true,-0.0,-71.19999686688432,0.0,0.0
2017-07-18T16:17:00.729,61.13665771484375,197.2212371826172,136.08457946777344,0.0,0.0,-0.0,0.0,0.0,179.99999979432,true,1.0,0.0,-78.39999991041492,false,64.84101148175677,-147.71852695404934,1.007,15.303,0.5999999993144,1.0,0.46,-1.9999999977146665,4.0,64.91282070926617,-147.9109646927836,true,-0.0,-71.19999686688432,0.0,0.0
2017-07-18T16:17:00.775,61.13665771484375,197.2212371826172,136.08457946777344,0.0,0.0,-0.0,0.0,0.0,179.99999979432,true,1.0,0.0,-78.39999991041492,false,64.84101148175677,-147.71852695404934,1.007,15.303,0.5999999993144,1.0,0.46,-1.9999999977146665,4.0,64.91282070926617,-147.9109646927836,true,-0.0,-73.19999686459899,0.0,0.0
2017-07-18T16:17:00.848,61.13665771484375,197.2212371826172,136.08457946777344,0.0,0.0,-0.0,0.0,0.0,179.99999979432,true,1.0,0.0,-79.39999990927227,false,64.84101148175677,-147.71852695404934,1.007,15.303,0.5999999993144,1.0,0.46,-1.9999999977146665,4.0,64.91282070926617,-147.9109646927836,true,-0.0,-73.19999686459899,0.0,0.0
2017-07-18T16:17:00.998,61.13665771484375,197.2212371826172,136.08457946777344,0.0,0.0,-0.0,0.0,0.0,179.99999979432,true,1.0,0.0,-79.89999990870093,false,64.84101148175677,-147.71852695404934,1.007,15.303,0.5999999993144,1.0,0.46,-1.9999999977146665,4.0,64.91282070926617,-147.9109646927836,true,-0.0,-73.19999686459899,0.0,0.0
2017-07-18T16:17:01.148,61.13665771484375,197.2212371826172,136.08457946777344,0.0,0.0,-0.0,0.0,0.0,179.99999979432,true,1.0,0.0,-79.89999990870093,false,64.84101148175677,-147.71852695404934,1.007,15.303,0.5999999993144,1.0,0.46,-1.9999999977146665,4.0,64.91282070926617,-147.9109646927836,true,-0.0,-73.19999686459899,0.0,0.0
