Checksum,Class_Ctry_Releasing_Instruct,Classifying_Country,Event_Start_Time_UTC,Frame_Center_Elevation,Frame_Center_Latitude,Frame_Center_Longitude,Generic_Flag_Data,Item_Designator_ID,Mission_ID,Offset_Corner_Latitude_Point_1,Offset_Corner_Latitude_Point_2,Offset_Corner_Latitude_Point_3,Offset_Corner_Latitude_Point_4,Offset_Corner_Long_Point_1,Offset_Corner_Long_Point_2,Offset_Corner_Long_Point_3,Offset_Corner_Long_Point_4,Platform_Call_Sign,Platform_Designation,Platform_Ground_Speed,Platform_Heading_Angle,Platform_Pitch_Angle,Platform_Roll_Angle,Platform_Tail_Number,Releasing_Instructions,Security_Classification,Sensor_Horizontal_Fld_of_View,Sensor_Latitude,Sensor_Longitude,Sensor_Relative_Azimuth_Angle,Sensor_Relative_Elev_Angle,Sensor_Relative_Roll_Angle,Sensor_True_Altitude,Sensor_Vertical_Field_of_View,Slant_Range,Target_Width,UAS_LDS_Version_Number,UNIX_Time_Stamp,Version
16058,ISO-3166 Two Letter,//CA,1/1/1970 12:00:00 AM,1864.16723632813,41.1197082517295,-104.852539349744,0,System.Byte[],ESRI_Metadata_Collect,41.1179160522605,41.1190376074837,41.1212990290359,41.1203697404224,-104.851664994448,-104.854812215738,-104.853310705071,-104.850477061467,Firebird,C208B,0,288.867919921875,3.56273078918457,-9.52940464019775,N97826,CA,UNCLASSIFIED//,7.76195907592773,41.1338702315157,-104.844435558116,272.000000111759,-22.882812508793,0,2945.48095703125,4.36713218688965,2026.84314037367,0,1,9/19/2012 8:48:50 PM,5
48899,ISO-3166 Two Letter,//CA,1/1/1970 12:00:00 AM,1864.16723632813,41.1197366244717,-104.852533817688,0,System.Byte[],ESRI_Metadata_Collect,41.1179535805556,41.1190591135614,41.1213182462253,41.1204049798292,-104.851648017951,-104.85479523924,-104.853316617456,-104.850480684963,Firebird,C208B,0,289.170074462891,3.8123722076416,-9.6392707824707,N97826,CA,UNCLASSIFIED//,7.76745271682739,41.1338957125013,-104.844560532293,271.039062605947,-22.7734374733518,0,2945.17749023438,4.36713218688965,2022.78024564096,0,1,9/19/2012 8:48:51 PM,5
32985,ISO-3166 Two Letter,//CA,1/1/1970 12:00:00 AM,1864.16723632813,41.1197675117849,-104.852528704727,0,System.Byte[],ESRI_Metadata_Collect,41.1179959123098,41.1190831342099,41.1213399779857,41.1204427338071,-104.851626882772,-104.85477639295,-104.853325237825,-104.850487016443,Firebird,C208B,0,289.807281494141,4.32019996643066,-9.57670783996582,N97826,CA,UNCLASSIFIED//,7.76195907592773,41.1339240852436,-104.844707550874,269.953125107557,-22.9843750237415,0,2944.87377929688,4.36713218688965,2018.17951212129,0,1,9/19/2012 8:48:51 PM,5
40394,ISO-3166 Two Letter,//CA,1/1/1970 12:00:00 AM,1864.16723632813,41.1197886341809,-104.852528034175,0,System.Byte[],ESRI_Metadata_Collect,41.1180284791469,41.1190973899413,41.1213519448288,41.1204684339795,-104.851614767779,-104.854764277957,-104.853336011713,-104.850497790332,Firebird,C208B,0,290.224761962891,4.74196577072144,-8.73287105560303,N97826,CA,UNCLASSIFIED//,7.75921249389648,41.1339478060296,-104.844833866155,269.171875153941,-23.7421874998799,0,2944.57006835938,4.3643856048584,2014.81976593258,0,1,9/19/2012 8:48:51 PM,5
33916,ISO-3166 Two Letter,//CA,1/1/1970 12:00:00 AM,1864.16723632813,41.1198044759779,-104.852531219298,0,System.Byte[],ESRI_Metadata_Collect,41.1180511876085,41.1191063650737,41.1213609199612,41.1204911424411,-104.851604219573,-104.854758307527,-104.853352930166,-104.850510131008,Firebird,C208B,0,290.345611572266,4.83596324920654,-8.18659019470215,N97826,CA,UNCLASSIFIED//,7.75921249389648,41.1339710658109,-104.844960600531,268.648437622154,-24.5546875356486,0,2944.26635742188,4.3643856048584,2012.09331909476,0,1,9/19/2012 8:48:51 PM,5
6387,ISO-3166 Two Letter,//CA,1/1/1970 12:00:00 AM,1863.86352539063,41.1198191443085,-104.85253624844,0,System.Byte[],ESRI_Metadata_Collect,41.1180750114919,41.1191141667396,41.1213687216271,41.1205126774363,-104.851595515386,-104.854754181116,-104.853369403749,-104.850522026815,Firebird,C208B,0,290.455474853516,4.63270950317383,-7.06961250305176,N97826,CA,UNCLASSIFIED//,7.75921249389648,41.1339939484065,-104.845087586364,268.382812596015,-25.4375000043947,0,2944.26635742188,4.3643856048584,2009.55430092513,0,1,9/19/2012 8:48:51 PM,5
47330,ISO-3166 Two Letter,//CA,1/1/1970 12:00:00 AM,1863.86352539063,41.1198389256,-104.852538763011,0,System.Byte[],ESRI_Metadata_Collect,41.1181016594481,41.1191270813665,41.121381636254,41.1205393253925,-104.851584296627,-104.854747540134,-104.853383362761,-104.850533696939,Firebird,C208B,0,290.367584228516,4.39039278030396,-6.5691089630127,N97826,CA,UNCLASSIFIED//,7.76195907592773,41.1340168310022,-104.84521524275,268.445312592305,-26.1484375252148,0,2943.96264648438,4.36713218688965,2006.42854953334,0,1,9/19/2012 8:48:52 PM,5
12912,ISO-3166 Two Letter,//CA,1/1/1970 12:00:00 AM,1863.86352539063,41.1198556055873,-104.852544127429,0,System.Byte[],ESRI_Metadata_Collect,41.1181274949882,41.1191368946891,41.1213914495767,41.1205628720444,-104.851578216604,-104.854743749,-104.85340017162,-104.850545928021,Firebird,C208B,0,290.037994384766,3.89049959182739,-5.99078321456909,N97826,CA,UNCLASSIFIED//,7.76745271682739,41.1340391268647,-104.845342899135,268.570312584883,-26.6171874974934,0,2943.6591796875,4.36713218688965,2003.81153309807,0,1,9/19/2012 8:48:52 PM,5
1929,ISO-3166 Two Letter,//CA,1/1/1970 12:00:00 AM,1863.86352539063,41.1198726627603,-104.852547396371,0,System.Byte[],ESRI_Metadata_Collect,41.118153707714,41.1191470851975,41.121401640085,41.120586795882,-104.851567752217,-104.854737862389,-104.853414885003,-104.850558352516,Firebird,C208B,0,289.845733642578,3.82030701637268,-5.64744997024536,N97826,CA,UNCLASSIFIED//,7.76195907592773,41.1340612969986,-104.845470890796,268.570312584883,-27.2187499828724,0,2943.6591796875,4.36713218688965,2001.10836932461,0,1,9/19/2012 8:48:52 PM,5
8099,ISO-3166 Two Letter,//CA,1/1/1970 12:00:00 AM,1863.86352539063,41.1198906419426,-104.852550413857,0,System.Byte[],ESRI_Metadata_Collect,41.1181808424492,41.1191559088269,41.1214104637145,41.1206116417289,-104.851557036373,-104.854727146545,-104.853431635818,-104.850572814442,Firebird,C208B,0,289.296417236328,4.20300912857056,-4.771568775177,N97826,CA,UNCLASSIFIED//,7.75921249389648,41.1340869456223,-104.845620759225,268.390625116506,-27.9921874999964,0,2943.6591796875,4.3643856048584,1998.11649555297,0,1,9/19/2012 8:48:52 PM,5
402,ISO-3166 Two Letter,//CA,1/1/1970 12:00:00 AM,1863.55993652344,41.1199038853496,-104.852552090237,0,System.Byte[],ESRI_Metadata_Collect,41.118203241409,41.1191599966811,41.1214168404569,41.1206340406888,-104.851544979424,-104.854721956261,-104.853444756639,-104.850583646376,Firebird,C208B,0,288.906372070313,4.58571100234985,-4.53047275543213,N97826,CA,UNCLASSIFIED//,7.76195907592773,41.1341091157562,-104.845749253801,268.312500163054,-28.3437500001601,0,2943.35546875,4.36713218688965,1995.78818911588,0,1,9/19/2012 8:48:52 PM,5
35277,ISO-3166 Two Letter,//CA,1/1/1970 12:00:00 AM,1863.55993652344,41.1199229541793,-104.852555778275,0,System.Byte[],ESRI_Metadata_Collect,41.1182314657916,41.1191721988462,41.1214267537337,41.1206599761832,-104.851532645244,-104.854711910969,-104.853462178006,-104.850596489966,Firebird,C208B,0,287.8681640625,5.25772857666016,-4.27259111404419,N97826,CA,UNCLASSIFIED//,7.75921249389648,41.134135099656,-104.84589912223,268.546875107229,-28.5781250282089,0,2943.35546875,4.3643856048584,1992.91389481931,0,1,9/19/2012 8:48:53 PM,5
50226,ISO-3166 Two Letter,//CA,1/1/1970 12:00:00 AM,1863.55993652344,41.1199363233149,-104.852558376665,0,System.Byte[],ESRI_Metadata_Collect,41.11825399048,41.1191764124289,41.1214332562047,41.1206802119834,-104.851521510305,-104.854705353806,-104.853476220837,-104.850608243909,Firebird,C208B,0,286.709075927734,5.7112340927124,-4.13983583450317,N97826,CA,UNCLASSIFIED//,7.75921249389648,41.1341568926043,-104.846027868263,268.812500133368,-28.7734375376131,0,2943.35546875,4.3643856048584,1990.71015277661,0,1,9/19/2012 8:48:53 PM,5
59076,ISO-3166 Two Letter,//CA,1/1/1970 12:00:00 AM,1863.55993652344,41.1199495667219,-104.852560891236,0,System.Byte[],ESRI_Metadata_Collect,41.1182763894399,41.1191827891713,41.1214396329471,41.120700322055,-104.851512580435,-104.854698712824,-104.853490179849,-104.850619914033,Firebird,C208B,0,286.198211669922,5.85955381393433,-4.14746522903442,N97826,CA,UNCLASSIFIED//,7.75921249389648,41.1341782664574,-104.846156865752,269.031250120381,-28.7968750152722,0,2943.35546875,4.3643856048584,1988.56927500772,0,1,9/19/2012 8:48:53 PM,5
251,ISO-3166 Two Letter,//CA,1/1/1970 12:00:00 AM,1863.55993652344,41.1199626424908,-104.852563321987,0,System.Byte[],ESRI_Metadata_Collect,41.1182963318735,41.1191867093874,41.1214458420514,41.1207202644886,-104.851501277858,-104.854691988023,-104.85350634393,-104.850629211449,Firebird,C208B,0,285.390716552734,6.07013130187988,-4.56099128723145,N97826,CA,UNCLASSIFIED//,7.76195907592773,41.1341993469439,-104.846285947061,269.16406263345,-28.4843750337532,0,2943.35546875,4.36713218688965,1986.46797844825,0,1,9/19/2012 8:48:53 PM,5
48217,ISO-3166 Two Letter,//CA,1/1/1970 12:00:00 AM,1863.25622558594,41.1199778137356,-104.852566171835,0,System.Byte[],ESRI_Metadata_Collect,41.118320658671,41.1191950139675,41.1214518577433,41.1207445912862,-104.851488105487,-104.854683393429,-104.853522927107,-104.850643505738,Firebird,C208B,0,285.110565185547,6.11712980270386,-4.89669466018677,N97826,CA,UNCLASSIFIED//,7.75921249389648,41.1342233191869,-104.846436905137,269.101562637161,-27.9375000241853,0,2943.6591796875,4.3643856048584,1984.053524673,0,1,9/19/2012 8:48:54 PM,5
12165,ISO-3166 Two Letter,//CA,1/1/1970 12:00:00 AM,1863.25622558594,41.1199892550334,-104.852569608415,0,System.Byte[],ESRI_Metadata_Collect,41.1183412555217,41.1191972997125,41.1214587212647,41.1207628992486,-104.851477808738,-104.854679963345,-104.853537808128,-104.850653808982,Firebird,C208B,0,284.830383300781,6.21112728118896,-5.67796850204468,N97826,CA,UNCLASSIFIED//,7.76195907592773,41.1342434357546,-104.846566237903,268.875000129658,-27.3593750164655,0,2943.6591796875,4.36713218688965,1982.25723625679,0,1,9/19/2012 8:48:54 PM,5
22544,ISO-3166 Two Letter,//CA,1/1/1970 12:00:00 AM,1863.25622558594,41.1200025822595,-104.852571620072,0,System.Byte[],ESRI_Metadata_Collect,41.1183614494124,41.1192037602739,41.1214628929379,41.1207830931393,-104.851468375954,-104.854670530561,-104.853551264226,-104.850664976192,Firebird,C208B,0,284.726013183594,6.29718923568726,-6.1006498336792,N97826,CA,UNCLASSIFIED//,7.76195907592773,41.1342630074985,-104.846695905946,268.609375103519,-26.5859374993415,0,2943.96264648438,4.36713218688965,1980.2106548986,0,1,9/19/2012 8:48:54 PM,5
36676,ISO-3166 Two Letter,//CA,1/1/1970 12:00:00 AM,1863.25622558594,41.1200224892795,-104.852575056652,0,System.Byte[],ESRI_Metadata_Collect,41.1183928008735,41.1192145117411,41.1214736444051,41.120809866824,-104.851455790317,-104.8546625227,-104.853568434135,-104.850679857213,Firebird,C208B,0,284.588684082031,6.32831811904907,-7.49076795578003,N97826,CA,UNCLASSIFIED//,7.75921249389648,41.1342851776324,-104.846847786031,268.312500163054,-25.3515625304317,0,2944.26635742188,4.3643856048584,1977.51447604446,0,1,9/19/2012 8:48:54 PM,5
56275,ISO-3166 Two Letter,//CA,1/1/1970 12:00:00 AM,1863.25622558594,41.1200414742902,-104.852578325594,0,System.Byte[],ESRI_Metadata_Collect,41.118420941437,41.1192266300872,41.1214857627512,41.1208357184993,-104.851447614818,-104.854656636089,-104.853583147519,-104.850692281708,Firebird,C208B,0,284.830383300781,6.03900241851807,-8.94344902038574,N97826,CA,UNCLASSIFIED//,7.76195907592773,41.1343032825432,-104.846978208445,267.953125142481,-24.226562513144,0,2944.57006835938,4.36713218688965,1975.03832214862,0,1,9/19/2012 8:48:54 PM,5
23759,ISO-3166 Two Letter,//CA,1/1/1970 12:00:00 AM,1863.25622558594,41.1200573160872,-104.852582851822,0,System.Byte[],ESRI_Metadata_Collect,41.1184482276751,41.1192356052196,41.1214924489953,41.120858426961,-104.851436118828,-104.854649717876,-104.853601407076,-104.850708252377,Firebird,C208B,0,285.022674560547,5.92181158065796,-9.67894554138184,N97826,CA,UNCLASSIFIED//,7.76195907592773,41.1343235667489,-104.847130423806,267.390625092059,-22.9296874641113,0,2944.87377929688,4.36713218688965,1972.78801397718,0,1,9/19/2012 8:48:55 PM,5
53745,ISO-3166 Two Letter,//CA,1/1/1970 12:00:00 AM,1863.25622558594,41.1200755467266,-104.852585198755,0,System.Byte[],ESRI_Metadata_Collect,41.1184756138673,41.1192469691943,41.1215015240819,41.120883524265,-104.85142702132,-104.854640620368,-104.85361519845,-104.850719754863,Firebird,C208B,0,285.385223388672,5.9138765335083,-10.686056137085,N97826,CA,UNCLASSIFIED//,7.76195907592773,41.1343403724648,-104.847261432953,266.78906260682,-22.4609374918327,0,2945.17749023438,4.36713218688965,1970.34329221825,0,1,9/19/2012 8:48:55 PM,5
5390,ISO-3166 Two Letter,//CA,1/1/1970 12:00:00 AM,1863.25622558594,41.1200991417841,-104.852588048602,0,System.Byte[],ESRI_Metadata_Collect,41.1185083644776,41.1192636975872,41.1215182524747,41.1209139859871,-104.851416137838,-104.854632025774,-104.853629492738,-104.850731760263,Firebird,C208B,0,285.577484130859,5.96881008148193,-10.6936855316162,N97826,CA,UNCLASSIFIED//,7.76195907592773,41.1343565914474,-104.847392861195,266.17968760109,-22.6328125235777,0,2945.48095703125,4.36713218688965,1967.41311856718,0,1,9/19/2012 8:48:55 PM,5
41339,ISO-3166 Two Letter,//CA,1/1/1970 12:00:00 AM,1863.25622558594,41.1201244132221,-104.852591066087,0,System.Byte[],ESRI_Metadata_Collect,41.1185450803567,41.1192821023606,41.1215343683599,41.1209438352016,-104.851407710882,-104.854625887706,-104.853641665776,-104.850743933301,Firebird,C208B,0,285.813690185547,6.10187101364136,-9.95208549499512,N97826,CA,UNCLASSIFIED//,7.76195907592773,41.1343723075159,-104.847524289436,265.640625112141,-23.3593750015643,0,2945.78466796875,4.36713218688965,1964.32811253805,0,1,9/19/2012 8:48:55 PM,5
52599,ISO-3166 Two Letter,//CA,1/1/1970 12:00:00 AM,1863.25622558594,41.1201511095837,-104.852594837943,0,System.Byte[],ESRI_Metadata_Collect,41.1185809322712,41.1193042209458,41.1215519091687,41.1209773982278,-104.851400038297,-104.854618215122,-104.853656882073,-104.85075686071,Firebird,C208B,0,285.813690185547,6.23432111740112,-9.46684169769287,N97826,CA,UNCLASSIFIED//,7.77019929885864,41.1343878140367,-104.847655885316,265.273437654896,-23.9531249664506,0,2945.78466796875,4.3698787689209,1961.13251195316,0,1,9/19/2012 8:48:55 PM,5
40214,ISO-3166 Two Letter,//CA,1/1/1970 12:00:00 AM,1863.25622558594,41.1201817873494,-104.85259944799,0,System.Byte[],ESRI_Metadata_Collect,41.1186230544779,41.1193280320468,41.1215734313815,41.1210126537699,-104.851393203903,-104.854611380727,-104.853672936561,-104.850772915198,Firebird,C208B,0,285.368743896484,6.44550943374634,-9.08383464813232,N97826,CA,UNCLASSIFIED//,7.76745271682739,41.1344030691005,-104.847787565015,265.242187656751,-24.2031250354848,0,2946.08837890625,4.36713218688965,1957.62491830569,0,1,9/19/2012 8:48:56 PM,5
27349,ISO-3166 Two Letter,//CA,1/1/1970 12:00:00 AM,1863.25622558594,41.1201817873494,-104.85259944799,0,System.Byte[],ESRI_Metadata_Collect,41.1186322100307,41.1193188764939,41.1215642758286,41.1210218093227,-104.851379470574,-104.854599936286,-104.85368666989,-104.850784359639,Firebird,C208B,0,284.506286621094,6.53889560699463,-9.15555286407471,N97826,CA,UNCLASSIFIED//,7.76195907592773,41.1344209644638,-104.847941289119,265.523437640053,-24.2499999908032,0,2946.08837890625,4.36713218688965,1957.62491830569,0,1,9/19/2012 8:48:56 PM,5
25455,ISO-3166 Two Letter,//CA,1/1/1970 12:00:00 AM,1863.25622558594,41.1202630499007,-104.85260380658,0,System.Byte[],ESRI_Metadata_Collect,41.1187317836877,41.1194001390452,41.1216318050507,41.121103071874,-104.851374673611,-104.854588272658,-104.853697895144,-104.850802451558,Firebird,C208B,0,284.044860839844,6.53157138824463,-9.17081165313721,N97826,CA,UNCLASSIFIED//,7.76195907592773,41.1344355070658,-104.848072884999,265.835937621499,-24.3749999834108,0,2946.39208984375,4.36713218688965,1948.65511775684,0,1,9/19/2012 8:48:56 PM,5
33110,ISO-3166 Two Letter,//CA,1/1/1970 12:00:00 AM,1863.25622558594,41.1203020676599,-104.852602130199,0,System.Byte[],ESRI_Metadata_Collect,41.1187845347762,41.1194368679163,41.1216593783689,41.1211443785215,-104.851363841677,-104.854572862949,-104.853705374317,-104.850812219618,Firebird,C208B,0,282.951690673828,6.5779595375061,-9.26389312744141,N97826,CA,UNCLASSIFIED//,7.75921249389648,41.1344496724822,-104.848204480879,266.234375160708,-24.4062499815627,0,2946.69555664063,4.3643856048584,1944.37452637227,0,1,9/19/2012 8:48:56 PM,5
61940,ISO-3166 Two Letter,//CA,1/1/1970 12:00:00 AM,1863.25622558594,41.120348545313,-104.852599280352,0,System.Byte[],ESRI_Metadata_Collect,41.1188447457586,41.1194764789048,41.1216944115809,41.1211977228392,-104.851347258501,-104.854553990884,-104.853713968911,-104.850823103101,Firebird,C208B,0,282.287017822266,6.62495803833008,-9.72472286224365,N97826,CA,UNCLASSIFIED//,7.76195907592773,41.1344658914648,-104.848358037345,266.875000164582,-23.7031249812353,0,2946.69555664063,4.36713218688965,1939.31162402483,0,1,9/19/2012 8:48:56 PM,5
59959,ISO-3166 Two Letter,//CA,1/1/1970 12:00:00 AM,1863.25622558594,41.1203897842767,-104.852597771609,0,System.Byte[],ESRI_Metadata_Collect,41.1188974291633,41.119513140092,41.1217242061035,41.1213099173374,-104.851336594205,-104.8545410377,-104.853723904609,-104.850821594358,Firebird,C208B,0,280.93017578125,6.66402149200439,-10.8584852218628,N97826,CA,UNCLASSIFIED//,7.76195907592773,41.1344791348718,-104.848489633225,267.453125088348,-23.054687540538,0,2947.30297851563,4.36713218688965,1934.93673622956,0,1,9/19/2012 8:48:57 PM,5
7774,ISO-3166 Two Letter,//CA,1/1/1970 12:00:00 AM,1863.25622558594,41.1204337892683,-104.852594670305,0,System.Byte[],ESRI_Metadata_Collect,41.1189551674842,41.1195525673072,41.1217567666541,41.1213562112173,-104.85132204846,-104.854524203067,-104.853729958858,-104.850829937495,Firebird,C208B,0,280.303955078125,6.61702299118042,-11.2872705459595,N97826,CA,UNCLASSIFIED//,7.76195907592773,41.1344915400885,-104.848621480562,267.976562620135,-22.5625000067812,0,2947.60668945313,4.36713218688965,1930.24985537172,0,1,9/19/2012 8:48:57 PM,5
52807,ISO-3166 Two Letter,//CA,1/1/1970 12:00:00 AM,1863.55993652344,41.1204754892366,-104.852592742468,0,System.Byte[],ESRI_Metadata_Collect,41.11901288967,41.1195896894991,41.1217870221814,41.1213361112039,-104.851308676181,-104.854506253012,-104.853739475461,-104.850853187427,Firebird,C208B,0,279.17236328125,6.53157138824463,-12.0380258560181,N97826,CA,UNCLASSIFIED//,7.76195907592773,41.1345048673146,-104.848775372304,268.453125112796,-22.1015624711763,0,2947.91015625,4.36713218688965,1925.66309169067,0,1,9/19/2012 8:48:57 PM,5
10585,ISO-3166 Two Letter,//CA,1/1/1970 12:00:00 AM,1863.55993652344,41.1205025627839,-104.852593245382,0,System.Byte[],ESRI_Metadata_Collect,41.1190514076583,41.1196121852699,41.1218026512876,41.1213700514157,-104.851297734655,-104.854495311485,-104.853749133928,-104.850865134783,Firebird,C208B,0,278.205535888672,6.4687032699585,-12.7491073608398,N97826,CA,UNCLASSIFIED//,7.75921249389648,41.1345153866031,-104.848907471098,268.773437614733,-21.6953124952015,0,2948.2138671875,4.3643856048584,1922.5385044521,0,1,9/19/2012 8:48:57 PM,5
29136,ISO-3166 Two Letter,//CA,1/1/1970 12:00:00 AM,1863.55993652344,41.1205280856791,-104.852594167391,0,System.Byte[],ESRI_Metadata_Collect,41.1190860861063,41.1196308415005,41.1218190186299,41.1214001520873,-104.851287212223,-104.854484789053,-104.853761500379,-104.850875212345,Firebird,C208B,0,277.821014404297,6.45344400405884,-13.1550035476685,N97826,CA,UNCLASSIFIED//,7.76195907592773,41.1345249000632,-104.849039569892,268.960937603601,-21.1484374856336,0,2948.517578125,4.36713218688965,1919.53848160793,0,1,9/19/2012 8:48:58 PM,5
21774,ISO-3166 Two Letter,//CA,1/1/1970 12:00:00 AM,1863.55993652344,41.1205542791265,-104.852595508496,0,System.Byte[],ESRI_Metadata_Collect,41.1191237239948,41.1196524571715,41.1218360565245,41.1214309233112,-104.851277108886,-104.854474685717,-104.853771997036,-104.85088799789,Firebird,C208B,0,277.156341552734,6.39851093292236,-14.2017879486084,N97826,CA,UNCLASSIFIED//,7.76195907592773,41.1345338686996,-104.849172003963,269.070312639016,-20.421875007647,0,2948.8212890625,4.36713218688965,1916.46046049811,0,1,9/19/2012 8:48:58 PM,5
491,ISO-3166 Two Letter,//CA,1/1/1970 12:00:00 AM,1863.55993652344,41.1205832805115,-104.852595592315,0,System.Byte[],ESRI_Metadata_Collect,41.1191664587091,41.1196745918918,41.1218536134684,41.1214667913608,-104.851265748264,-104.854461036206,-104.853783525296,-104.850899526151,Firebird,C208B,0,276.920104980469,6.38264083862305,-14.5924253463745,N97826,CA,UNCLASSIFIED//,7.76195907592773,41.1345424182408,-104.849326482438,268.992187601745,-19.9062499962311,0,2949.42846679688,4.36713218688965,1912.95985176995,0,1,9/19/2012 8:48:58 PM,5
45824,ISO-3166 Two Letter,//CA,1/1/1970 12:00:00 AM,1863.55993652344,41.1206090129542,-104.85259341302,0,System.Byte[],ESRI_Metadata_Collect,41.1192036355928,41.1196934576699,41.1218701903583,41.1214993904682,-104.851252124528,-104.854447412471,-104.853792790442,-104.850908791297,Firebird,C208B,0,276.617980957031,6.39851093292236,-14.9754323959351,N97826,CA,UNCLASSIFIED//,7.76745271682739,41.1345486208492,-104.849459084146,268.796875092386,-19.7890625241162,0,2949.73217773438,4.36713218688965,1909.82711545886,0,1,9/19/2012 8:48:58 PM,5
43877,ISO-3166 Two Letter,//CA,1/1/1970 12:00:00 AM,1863.55993652344,41.1206411994624,-104.85258821624,0,System.Byte[],ESRI_Metadata_Collect,41.1192518443185,41.1197187775135,41.1218886435372,41.1215361547528,-104.851235483307,-104.854426193473,-104.853799038103,-104.850917327846,Firebird,C208B,0,276.359802246094,6.71102046966553,-14.9128694534302,N97826,CA,UNCLASSIFIED//,7.76195907592773,41.1345545720004,-104.849613897898,268.390625116506,-19.9062499962311,0,2950.33959960938,4.36713218688965,1905.88994927376,0,1,9/19/2012 8:48:58 PM,5
65153,ISO-3166 Two Letter,//CA,1/1/1970 12:00:00 AM,1863.86352539063,41.1206688597429,-104.852582600365,0,System.Byte[],ESRI_Metadata_Collect,41.1192909490401,41.1197418600176,41.1219048593767,41.1215683928097,-104.851218422991,-104.854406844269,-104.853802577781,-104.850923156412,Firebird,C208B,0,276.195007324219,6.99240112304688,-14.8503065109253,N97826,CA,UNCLASSIFIED//,7.76195907592773,41.1345586372235,-104.849746751063,267.960937662972,-20.0468750298242,0,2950.64306640625,4.36713218688965,1902.47548788378,0,1,9/19/2012 8:48:59 PM,5
1604,ISO-3166 Two Letter,//CA,1/1/1970 12:00:00 AM,1863.86352539063,41.1206987831372,-104.852576146299,0,System.Byte[],ESRI_Metadata_Collect,41.1193346057637,41.1197672056355,41.12192333833,41.1216051828687,-104.851200524485,-104.854388945762,-104.853807568157,-104.850928146788,Firebird,C208B,0,275.892883300781,7.57042169570923,-14.7877435684204,N97826,CA,UNCLASSIFIED//,7.76195907592773,41.1345624509894,-104.849879855686,267.554687603273,-20.1328125037871,0,2950.94677734375,4.36713218688965,1898.82703169687,0,1,9/19/2012 8:48:59 PM,5
29880,ISO-3166 Two Letter,//CA,1/1/1970 12:00:00 AM,1863.86352539063,41.1207307181883,-104.852569273139,0,System.Byte[],ESRI_Metadata_Collect,41.119380274144,41.1197922740219,41.12194382894,41.1216416956962,-104.851182206883,-104.854366050384,-104.853812139437,-104.850935006956,Firebird,C208B,0,275.706115722656,7.8127384185791,-14.8350477218628,N97826,CA,UNCLASSIFIED//,7.76195907592773,41.1345649655604,-104.850034837076,267.218750144173,-20.1328125037871,0,2951.55419921875,4.36713218688965,1894.8665824474,0,1,9/19/2012 8:48:59 PM,5
12382,ISO-3166 Two Letter,//CA,1/1/1970 12:00:00 AM,1863.86352539063,41.1207565763596,-104.852563741083,0,System.Byte[],ESRI_Metadata_Collect,41.1194198656446,41.1198112655286,41.1219582426702,41.1216721316439,-104.851165230386,-104.854349073887,-104.853815762934,-104.850940919341,Firebird,C208B,0,275.178771972656,8.16431140899658,-14.8976106643677,N97826,CA,UNCLASSIFIED//,7.76195907592773,41.1345660552078,-104.850167522603,267.054687632959,-20.1718750224318,0,2951.85766601563,4.36713218688965,1891.61626666123,0,1,9/19/2012 8:48:59 PM,5
28356,ISO-3166 Two Letter,//CA,1/1/1970 12:00:00 AM,1864.16723632813,41.120782685988,-104.852561226512,0,System.Byte[],ESRI_Metadata_Collect,41.119457419714,41.1198327973806,41.1219751967458,41.1217051079369,-104.851151271374,-104.854332825987,-104.853824692804,-104.850949849211,Firebird,C208B,0,274.876617431641,8.28943729400635,-14.9433879852295,N97826,CA,UNCLASSIFIED//,7.76745271682739,41.1345662647554,-104.850300124311,266.984375116179,-20.1796875429245,0,2952.46508789063,4.36713218688965,1888.38224902013,0,1,9/19/2012 8:48:59 PM,5
47445,ISO-3166 Two Letter,//CA,1/1/1970 12:00:00 AM,1864.16723632813,41.1208114359159,-104.852560304502,0,System.Byte[],ESRI_Metadata_Collect,41.1194999029712,41.1197814362211,41.1219925022326,41.1217384356412,-104.851141193812,-104.854338770642,-104.853832926347,-104.850960371643,Firebird,C208B,0,274.151519775391,8.42982292175293,-15.1478624343872,N97826,CA,UNCLASSIFIED//,7.76745271682739,41.1345659294792,-104.850432893657,267.085937631104,-20.0937499851425,0,2952.76879882813,4.36713218688965,1884.84322323577,0,1,9/19/2012 8:49:00 PM,5
38380,ISO-3166 Two Letter,//CA,1/1/1970 12:00:00 AM,1864.16723632813,41.1208408563961,-104.852559214855,0,System.Byte[],ESRI_Metadata_Collect,41.1195430567806,41.1198062789248,41.1220081893835,41.1217724338978,-104.851128659723,-104.854321658777,-104.853840992253,-104.850973015325,Firebird,C208B,0,273.344024658203,8.30469703674316,-15.2638320922852,N97826,CA,UNCLASSIFIED//,7.76195907592773,41.134563875913,-104.850587120676,267.359375093914,-20.1406250242799,0,2953.6796875,4.36713218688965,1881.16333491196,0,1,9/19/2012 8:49:00 PM,5
53848,ISO-3166 Two Letter,//CA,1/1/1970 12:00:00 AM,1864.16723632813,41.1208663792912,-104.852557454655,0,System.Byte[],ESRI_Metadata_Collect,41.119582313005,41.1198272240436,41.1220222678376,41.1218025345694,-104.851117743971,-104.854306165248,-104.853848387606,-104.850982699566,Firebird,C208B,0,272.942993164063,8.16431140899658,-15.2714624404907,N97826,CA,UNCLASSIFIED//,7.76195907592773,41.1345609003373,-104.85071921947,267.640625161035,-20.2656250168875,0,2954.287109375,4.36713218688965,1877.9758833996,0,1,9/19/2012 8:49:00 PM,5
35612,ISO-3166 Two Letter,//CA,1/1/1970 12:00:00 AM,1864.16723632813,41.1208968894188,-104.852555526817,0,System.Byte[],ESRI_Metadata_Collect,41.1196265564618,41.1198508675065,41.1220413335241,41.1218376224734,-104.851104371692,-104.854288215193,-104.853857904209,-104.850994505058,Firebird,C208B,0,272.228881835938,7.87499618530273,-15.1005582809448,N97826,CA,UNCLASSIFIED//,7.76195907592773,41.1345562483811,-104.85087327885,267.882812625701,-20.593750039392,0,2954.89428710938,4.36713218688965,1874.12486455266,0,1,9/19/2012 8:49:00 PM,5
39039,ISO-3166 Two Letter,//CA,1/1/1970 12:00:00 AM,1864.16723632813,41.1209228733186,-104.852553766618,0,System.Byte[],ESRI_Metadata_Collect,41.119666273691,41.1198722736299,41.1220558729829,41.1218681841496,-104.851093455939,-104.854275010552,-104.853865299563,-104.851004189299,Firebird,C208B,0,271.893798828125,7.72667646408081,-15.0456247329712,N97826,CA,UNCLASSIFIED//,7.76195907592773,41.1345513868772,-104.851005126187,268.14843765184,-20.7890624649772,0,2955.50170898438,4.36713218688965,1870.85126570213,0,1,9/19/2012 8:49:00 PM,5
58336,ISO-3166 Two Letter,//CA,1/1/1970 12:00:00 AM,1864.16723632813,41.1209530481701,-104.852548737476,0,System.Byte[],ESRI_Metadata_Collect,41.1197101818716,41.1198978707049,41.1220746033933,41.1219029367775,-104.851079271245,-104.854253959193,-104.853869425973,-104.851012893487,Firebird,C208B,0,271.06982421875,7.49229431152344,-14.8503065109253,N97826,CA,UNCLASSIFIED//,7.76195907592773,41.1345460224592,-104.851137560257,268.375000159343,-21.0546874911779,0,2955.80517578125,4.36713218688965,1867.07009604831,0,1,9/19/2012 8:49:01 PM,5
20036,ISO-3166 Two Letter,//CA,1/1/1970 12:00:00 AM,1864.47094726563,41.1209798702602,-104.852539936478,0,System.Byte[],ESRI_Metadata_Collect,41.1197507372911,41.1199201150187,41.1220876921542,41.1219343366441,-104.851061314693,-104.854231424865,-104.853869780528,-104.851015536929,Firebird,C208B,0,270.608367919922,7.4373607635498,-14.7648544311523,N97826,CA,UNCLASSIFIED//,7.76195907592773,41.1345394426652,-104.851269239956,268.61718762401,-21.3359374745451,0,2956.41259765625,4.36713218688965,1863.67076865017,0,1,9/19/2012 8:49:01 PM,5
9454,ISO-3166 Two Letter,//CA,1/1/1970 12:00:00 AM,1864.47094726563,41.1210117214923,-104.85252585488,0,System.Byte[],ESRI_Metadata_Collect,41.1197986107406,41.1199473884743,41.122105810057,41.1219730545408,-104.851035788655,-104.854199032162,-104.853864854484,-104.851015188661,Firebird,C208B,0,269.718475341797,7.3281044960022,-14.5847959518433,N97826,CA,UNCLASSIFIED//,7.76195907592773,41.1345306416669,-104.851422796422,268.914062648293,-21.624999978405,0,2957.02001953125,4.36713218688965,1859.60903807068,0,1,9/19/2012 8:49:01 PM,5
1030,ISO-3166 Two Letter,//CA,1/1/1970 12:00:00 AM,1864.47094726563,41.1210385435824,-104.85251026454,0,System.Byte[],ESRI_Metadata_Collect,41.11983916616,41.1199673438998,41.1221211877061,41.1220044544074,-104.851011042762,-104.854169708493,-104.853858419696,-104.851013331651,Firebird,C208B,0,268.850524902344,7.07846307754517,-14.3574323654175,N97826,CA,UNCLASSIFIED//,7.76195907592773,41.1345220502161,-104.851554140845,269.171875153941,-21.9296875232503,0,2957.62719726563,4.36713218688965,1856.17129361633,0,1,9/19/2012 8:49:01 PM,5
45240,ISO-3166 Two Letter,//CA,1/1/1970 12:00:00 AM,1864.47094726563,41.1210706043621,-104.852485286469,0,System.Byte[],ESRI_Metadata_Collect,41.1198895380454,41.1199948269031,41.1221372262683,41.1220433818516,-104.85097462025,-104.854126419316,-104.853844886066,-104.851004375797,Firebird,C208B,0,268.455017089844,6.88314485549927,-14.2414627075195,N97826,CA,UNCLASSIFIED//,7.75921249389648,41.1345109441944,-104.851707362035,269.429687659589,-22.2500000252621,0,2958.23461914063,4.3643856048584,1852.05368368236,0,1,9/19/2012 8:49:02 PM,5
38538,ISO-3166 Two Letter,//CA,1/1/1970 12:00:00 AM,1864.47094726563,41.1210973007237,-104.852463996435,0,System.Byte[],ESRI_Metadata_Collect,41.119927678848,41.1200146566,41.1221524781888,41.1220746559897,-104.850944174663,-104.854091395953,-104.853832751585,-104.850994530204,Firebird,C208B,0,267.812316894531,6.66402149200439,-13.9286479949951,N97826,CA,UNCLASSIFIED//,7.76195907592773,41.1345026042007,-104.851817416424,269.453125137243,-22.5703125272739,0,2958.23461914063,4.36713218688965,1848.65552043744,0,1,9/19/2012 8:49:02 PM,5
53179,ISO-3166 Two Letter,//CA,1/1/1970 12:00:00 AM,1864.47094726563,41.1211266373848,-104.852438012535,0,System.Byte[],ESRI_Metadata_Collect,41.1199730377266,41.1200394154847,41.1221680815207,41.1221085704272,-104.850906746322,-104.854049389835,-104.853815923238,-104.850982279633,Firebird,C208B,0,267.515686035156,6.66402149200439,-13.7714776992798,N97826,CA,UNCLASSIFIED//,7.76195907592773,41.13449141436,-104.851948677028,269.359375142809,-22.882812508793,0,2958.841796875,4.36713218688965,1844.94419997673,0,1,9/19/2012 8:49:02 PM,5
64404,ISO-3166 Two Letter,//CA,1/1/1970 12:00:00 AM,1864.47094726563,41.1211605840927,-104.852406496579,0,System.Byte[],ESRI_Metadata_Collect,41.1200252955402,41.120066495528,41.1221860060111,41.1221493837997,-104.850863785925,-104.853997273885,-104.853795851723,-104.850969074783,Firebird,C208B,0,266.993804931641,6.71102046966553,-13.623462677002,N97826,CA,UNCLASSIFIED//,7.76195907592773,41.1344773327627,-104.852101562941,269.203125152086,-23.0859375386899,0,2959.1455078125,4.36713218688965,1840.60889339089,0,1,9/19/2012 8:49:02 PM,5
6224,ISO-3166 Two Letter,//CA,1/1/1970 12:00:00 AM,1864.47094726563,41.1211879929161,-104.85237699228,0,System.Byte[],ESRI_Metadata_Collect,41.120068726581,41.1200870376867,41.1221996815052,41.1221836592877,-104.850822837185,-104.853951747369,-104.853775502977,-104.850953303813,Firebird,C208B,0,266.735626220703,6.71102046966553,-13.6082029342651,N97826,CA,UNCLASSIFIED//,7.76195907592773,41.1344644665413,-104.852232572088,269.031250120381,-23.2421875294494,0,2959.44921875,4.36713218688965,1837.06986760652,0,1,9/19/2012 8:49:02 PM,5
39752,ISO-3166 Two Letter,//CA,1/1/1970 12:00:00 AM,1864.47094726563,41.1212149407348,-104.852345476324,0,System.Byte[],ESRI_Metadata_Collect,41.1201116966172,41.120109407729,41.1222128959946,41.1222151848828,-104.850782165676,-104.853901920307,-104.853753142573,-104.850937810074,Firebird,C208B,0,266.197296142578,6.88314485549927,-13.3732109069824,N97826,CA,UNCLASSIFIED//,7.75921249389648,41.1344507621296,-104.852363413597,268.843750131513,-23.4765624736792,0,2959.75268554688,4.3643856048584,1833.58555702343,0,1,9/19/2012 8:49:03 PM,5
60079,ISO-3166 Two Letter,//CA,1/1/1970 12:00:00 AM,1864.47094726563,41.1212428524723,-104.85231295454,0,System.Byte[],ESRI_Metadata_Collect,41.1201556305723,41.120130452802,41.122227074403,41.1222499632851,-104.850738199451,-104.853853376305,-104.85373206523,-104.850919021619,Firebird,C208B,0,265.900665283203,6.96127223968506,-13.3274326324463,N97826,CA,UNCLASSIFIED//,7.76195907592773,41.1344366805323,-104.852494422743,268.703125097953,-23.6171875072723,0,2960.05639648438,4.36713218688965,1830.04653123907,0,1,9/19/2012 8:49:03 PM,5
